{
  "type": "FeatureCollection",
  "features": [
    {
      "type": "Feature",
      "properties": {
        "name": "Alexandre Pantoja",
        "gym_location": "American Top Team",
        "weight_class": "Flyweight",
        "rank": "Champion"
      },
      "geometry": {
        "type": "Point",
        "coordinates": [
          -80.21597394,
          26.72796852
        ]
      }
    },
    {
      "type": "Feature",
      "properties": {
        "name": "Brandon Royval",
        "gym_location": "Factory X",
        "weight_class": "Flyweight",
        "rank": "1"
      },
      "geometry": {
        "type": "Point",
        "coordinates": [
          -105.011848,
          39.63047099
        ]
      }
    },
    {
      "type": "Feature",
      "properties": {
        "name": "Brandon Moreno",
        "gym_location": "Jiu-Jitsu",
        "weight_class": "Flyweight",
        "rank": "2"
      },
      "geometry": {
        "type": "Point",
        "coordinates": [
          1.0,
          1.0
        ]
      }
    },
    {
      "type": "Feature",
      "properties": {
        "name": "Amir Albazi",
        "gym_location": "Xtreme Couture - Las Vegas, NV",
        "weight_class": "Flyweight",
        "rank": "3"
      },
      "geometry": {
        "type": "Point",
        "coordinates": [
          -115.323575,
          36.226171
        ]
      }
    },
    {
      "type": "Feature",
      "properties": {
        "name": "Kai Kara-France",
        "gym_location": "City Kickboxing",
        "weight_class": "Flyweight",
        "rank": "4"
      },
      "geometry": {
        "type": "Point",
        "coordinates": [
          174.75294,
          -36.865604
        ]
      }
    },
    {
      "type": "Feature",
      "properties": {
        "name": "Tatsuro Taira",
        "gym_location": "24",
        "weight_class": "Flyweight",
        "rank": "5"
      },
      "geometry": {
        "type": "Point",
        "coordinates": [
          1.0,
          1.0
        ]
      }
    },
    {
      "type": "Feature",
      "properties": {
        "name": "Alex Perez",
        "gym_location": "Syndicate MMA",
        "weight_class": "Flyweight",
        "rank": "6"
      },
      "geometry": {
        "type": "Point",
        "coordinates": [
          -115.245147,
          36.056956
        ]
      }
    },
    {
      "type": "Feature",
      "properties": {
        "name": "Steve Erceg",
        "gym_location": "MMA",
        "weight_class": "Flyweight",
        "rank": "7"
      },
      "geometry": {
        "type": "Point",
        "coordinates": [
          1.0,
          1.0
        ]
      }
    },
    {
      "type": "Feature",
      "properties": {
        "name": "Matheus Nicolau",
        "gym_location": "Nova Uniao - Rio de Janeiro",
        "weight_class": "Flyweight",
        "rank": "8"
      },
      "geometry": {
        "type": "Point",
        "coordinates": [
          -43.1776715,
          -22.936483
        ]
      }
    },
    {
      "type": "Feature",
      "properties": {
        "name": "Manel Kape",
        "gym_location": "Xtreme Couture - Las Vegas, NV",
        "weight_class": "Flyweight",
        "rank": "9"
      },
      "geometry": {
        "type": "Point",
        "coordinates": [
          -115.323575,
          36.226171
        ]
      }
    },
    {
      "type": "Feature",
      "properties": {
        "name": "Tim Elliott",
        "gym_location": "Freestyle",
        "weight_class": "Flyweight",
        "rank": "10"
      },
      "geometry": {
        "type": "Point",
        "coordinates": [
          158.2470669,
          -31.43803723
        ]
      }
    },
    {
      "type": "Feature",
      "properties": {
        "name": "Matt Schnell",
        "gym_location": "Boxing",
        "weight_class": "Flyweight",
        "rank": "11"
      },
      "geometry": {
        "type": "Point",
        "coordinates": [
          1.0,
          1.0
        ]
      }
    },
    {
      "type": "Feature",
      "properties": {
        "name": "Tagir Ulanbekov",
        "gym_location": "Eagles MMA Team",
        "weight_class": "Flyweight",
        "rank": "12"
      },
      "geometry": {
        "type": "Point",
        "coordinates": [
          37.45371394,
          55.72600052
        ]
      }
    },
    {
      "type": "Feature",
      "properties": {
        "name": "Bruno Silva",
        "gym_location": "Grappler",
        "weight_class": "Flyweight",
        "rank": "13"
      },
      "geometry": {
        "type": "Point",
        "coordinates": [
          1.0,
          1.0
        ]
      }
    },
    {
      "type": "Feature",
      "properties": {
        "name": "Asu Almabayev",
        "gym_location": "Gym information not found",
        "weight_class": "Flyweight",
        "rank": "14"
      },
      "geometry": {
        "type": "Point",
        "coordinates": [
          1.0,
          1.0
        ]
      }
    },
    {
      "type": "Feature",
      "properties": {
        "name": "Cody Durden",
        "gym_location": "American Top Team",
        "weight_class": "Flyweight",
        "rank": "15"
      },
      "geometry": {
        "type": "Point",
        "coordinates": [
          -80.21597394,
          26.72796852
        ]
      }
    },
    {
      "type": "Feature",
      "properties": {
        "name": "Sean O'Malley",
        "gym_location": "MMA LAB - Glendale, AZ",
        "weight_class": "Bantamweight",
        "rank": "Champion"
      },
      "geometry": {
        "type": "Point",
        "coordinates": [
          -112.18309,
          33.53855
        ]
      }
    },
    {
      "type": "Feature",
      "properties": {
        "name": "Merab Dvalishvili",
        "gym_location": "Team Serra/Longo",
        "weight_class": "Bantamweight",
        "rank": "1"
      },
      "geometry": {
        "type": "Point",
        "coordinates": [
          -73.61151018,
          40.72908221
        ]
      }
    },
    {
      "type": "Feature",
      "properties": {
        "name": "Cory Sandhagen",
        "gym_location": "MMA",
        "weight_class": "Bantamweight",
        "rank": "2"
      },
      "geometry": {
        "type": "Point",
        "coordinates": [
          1.0,
          1.0
        ]
      }
    },
    {
      "type": "Feature",
      "properties": {
        "name": "Petr Yan",
        "gym_location": "Team Yan",
        "weight_class": "Bantamweight",
        "rank": "3"
      },
      "geometry": {
        "type": "Point",
        "coordinates": [
          1.0,
          1.0
        ]
      }
    },
    {
      "type": "Feature",
      "properties": {
        "name": "Marlon Vera",
        "gym_location": "Grappler",
        "weight_class": "Bantamweight",
        "rank": "4"
      },
      "geometry": {
        "type": "Point",
        "coordinates": [
          1.0,
          1.0
        ]
      }
    },
    {
      "type": "Feature",
      "properties": {
        "name": "Henry Cejudo",
        "gym_location": "Fight Ready - Scottsdale, AZ",
        "weight_class": "Bantamweight",
        "rank": "5"
      },
      "geometry": {
        "type": "Point",
        "coordinates": [
          -111.92618,
          33.496822
        ]
      }
    },
    {
      "type": "Feature",
      "properties": {
        "name": "Deiveson Figueiredo",
        "gym_location": "Team Figueiredo",
        "weight_class": "Bantamweight",
        "rank": "6"
      },
      "geometry": {
        "type": "Point",
        "coordinates": [
          1.0,
          1.0
        ]
      }
    },
    {
      "type": "Feature",
      "properties": {
        "name": "Song Yadong",
        "gym_location": "Team Alpha Male",
        "weight_class": "Bantamweight",
        "rank": "7"
      },
      "geometry": {
        "type": "Point",
        "coordinates": [
          -121.4255428,
          38.55326537
        ]
      }
    },
    {
      "type": "Feature",
      "properties": {
        "name": "Rob Font",
        "gym_location": "Sityodtong - Boston",
        "weight_class": "Bantamweight",
        "rank": "9"
      },
      "geometry": {
        "type": "Point",
        "coordinates": [
          -71.0568,
          42.38768866
        ]
      }
    },
    {
      "type": "Feature",
      "properties": {
        "name": "Umar Nurmagomedov",
        "gym_location": "MMA",
        "weight_class": "Bantamweight",
        "rank": "10"
      },
      "geometry": {
        "type": "Point",
        "coordinates": [
          1.0,
          1.0
        ]
      }
    },
    {
      "type": "Feature",
      "properties": {
        "name": "Kyler Phillips",
        "gym_location": "The MMA Lab",
        "weight_class": "Bantamweight",
        "rank": "11"
      },
      "geometry": {
        "type": "Point",
        "coordinates": [
          -112.1172716,
          33.64263601
        ]
      }
    },
    {
      "type": "Feature",
      "properties": {
        "name": "Mario Bautista",
        "gym_location": "The MMA Lab",
        "weight_class": "Bantamweight",
        "rank": "12"
      },
      "geometry": {
        "type": "Point",
        "coordinates": [
          -112.1172716,
          33.64263601
        ]
      }
    },
    {
      "type": "Feature",
      "properties": {
        "name": "Dominick Cruz",
        "gym_location": "Alliance Training Center East -Santee",
        "weight_class": "Bantamweight",
        "rank": "13"
      },
      "geometry": {
        "type": "Point",
        "coordinates": [
          -116.962258,
          32.847002
        ]
      }
    },
    {
      "type": "Feature",
      "properties": {
        "name": "Jonathan Martinez",
        "gym_location": "Factory X",
        "weight_class": "Bantamweight",
        "rank": "14"
      },
      "geometry": {
        "type": "Point",
        "coordinates": [
          -105.011848,
          39.63047099
        ]
      }
    },
    {
      "type": "Feature",
      "properties": {
        "name": "Montel Jackson",
        "gym_location": "Pura Vida BJJ & MMA",
        "weight_class": "Bantamweight",
        "rank": "15"
      },
      "geometry": {
        "type": "Point",
        "coordinates": [
          -87.90633845,
          43.09210279
        ]
      }
    },
    {
      "type": "Feature",
      "properties": {
        "name": "Ilia Topuria",
        "gym_location": "Brazilian Jiu-Jitsu",
        "weight_class": "Featherweight",
        "rank": "Champion"
      },
      "geometry": {
        "type": "Point",
        "coordinates": [
          -75.125668,
          40.096742
        ]
      }
    },
    {
      "type": "Feature",
      "properties": {
        "name": "Alexander Volkanovski",
        "gym_location": "Freestyle Fighting Gym",
        "weight_class": "Featherweight",
        "rank": "1"
      },
      "geometry": {
        "type": "Point",
        "coordinates": [
          158.2470669,
          -31.43803723
        ]
      }
    },
    {
      "type": "Feature",
      "properties": {
        "name": "Max Holloway",
        "gym_location": "Hawaii Elite MMA - Hawaii",
        "weight_class": "Featherweight",
        "rank": "2"
      },
      "geometry": {
        "type": "Point",
        "coordinates": [
          -155.860178,
          19.951097
        ]
      }
    },
    {
      "type": "Feature",
      "properties": {
        "name": "Brian Ortega",
        "gym_location": "Team Ortega",
        "weight_class": "Featherweight",
        "rank": "3"
      },
      "geometry": {
        "type": "Point",
        "coordinates": [
          1.0,
          1.0
        ]
      }
    },
    {
      "type": "Feature",
      "properties": {
        "name": "Yair Rodriguez",
        "gym_location": "Izzystyle wrestling & VFS Chicago",
        "weight_class": "Featherweight",
        "rank": "4"
      },
      "geometry": {
        "type": "Point",
        "coordinates": [
          -58.061008,
          -34.86904
        ]
      }
    },
    {
      "type": "Feature",
      "properties": {
        "name": "Arnold Allen",
        "gym_location": "BKK / Tristar",
        "weight_class": "Featherweight",
        "rank": "5"
      },
      "geometry": {
        "type": "Point",
        "coordinates": [
          100.7502555,
          13.68970625
        ]
      }
    },
    {
      "type": "Feature",
      "properties": {
        "name": "Josh Emmett",
        "gym_location": "Team Alpha Male  (Urijah Faber's Ultimate Fitness)",
        "weight_class": "Featherweight",
        "rank": "7"
      },
      "geometry": {
        "type": "Point",
        "coordinates": [
          34.1578606,
          0.9174313
        ]
      }
    },
    {
      "type": "Feature",
      "properties": {
        "name": "Aljamain Sterling",
        "gym_location": "Serra-Longo - Long Island, NY",
        "weight_class": "Featherweight",
        "rank": "8"
      },
      "geometry": {
        "type": "Point",
        "coordinates": [
          -73.253616,
          40.805805
        ]
      }
    },
    {
      "type": "Feature",
      "properties": {
        "name": "Calvin Kattar",
        "gym_location": "New England MMA",
        "weight_class": "Featherweight",
        "rank": "9"
      },
      "geometry": {
        "type": "Point",
        "coordinates": [
          -2.265102,
          53.367321
        ]
      }
    },
    {
      "type": "Feature",
      "properties": {
        "name": "Giga Chikadze",
        "gym_location": "Kings MMA",
        "weight_class": "Featherweight",
        "rank": "10"
      },
      "geometry": {
        "type": "Point",
        "coordinates": [
          -117.999588,
          33.7161
        ]
      }
    },
    {
      "type": "Feature",
      "properties": {
        "name": "Lerone Murphy",
        "gym_location": "All Powers Gym",
        "weight_class": "Featherweight",
        "rank": "11"
      },
      "geometry": {
        "type": "Point",
        "coordinates": [
          -112.45047,
          42.908025
        ]
      }
    },
    {
      "type": "Feature",
      "properties": {
        "name": "Diego Lopes",
        "gym_location": "Jiu-Jitsu",
        "weight_class": "Featherweight",
        "rank": "12"
      },
      "geometry": {
        "type": "Point",
        "coordinates": [
          -73.663302,
          41.003537
        ]
      }
    },
    {
      "type": "Feature",
      "properties": {
        "name": "Bryce Mitchell",
        "gym_location": "MMA",
        "weight_class": "Featherweight",
        "rank": "13"
      },
      "geometry": {
        "type": "Point",
        "coordinates": [
          25.609612,
          -25.837608
        ]
      }
    },
    {
      "type": "Feature",
      "properties": {
        "name": "Dan Ige",
        "gym_location": "Jiu-Jitsu",
        "weight_class": "Featherweight",
        "rank": "14"
      },
      "geometry": {
        "type": "Point",
        "coordinates": [
          -73.663302,
          41.003537
        ]
      }
    },
    {
      "type": "Feature",
      "properties": {
        "name": "Edson Barboza",
        "gym_location": "Ricardo Almeida / Valor MMA",
        "weight_class": "Featherweight",
        "rank": "15"
      },
      "geometry": {
        "type": "Point",
        "coordinates": [
          -46.668756,
          -23.562981
        ]
      }
    },
    {
      "type": "Feature",
      "properties": {
        "name": "Islam Makhachev",
        "gym_location": "AKA (American Kickboxing Academy) San Jose",
        "weight_class": "Lightweight",
        "rank": "Champion"
      },
      "geometry": {
        "type": "Point",
        "coordinates": [
          -121.917046,
          37.264671
        ]
      }
    },
    {
      "type": "Feature",
      "properties": {
        "name": "Arman Tsarukyan",
        "gym_location": "Syndicate MMA - Las Vegas, NV",
        "weight_class": "Lightweight",
        "rank": "1"
      },
      "geometry": {
        "type": "Point",
        "coordinates": [
          -115.244765,
          36.057018
        ]
      }
    },
    {
      "type": "Feature",
      "properties": {
        "name": "Charles Oliveira",
        "gym_location": "Bronx's Gold Team",
        "weight_class": "Lightweight",
        "rank": "2"
      },
      "geometry": {
        "type": "Point",
        "coordinates": [
          -74.202789,
          40.711273
        ]
      }
    },
    {
      "type": "Feature",
      "properties": {
        "name": "Justin Gaethje",
        "gym_location": "Genesis Training Center",
        "weight_class": "Lightweight",
        "rank": "3"
      },
      "geometry": {
        "type": "Point",
        "coordinates": [
          -84.401413,
          35.497055
        ]
      }
    },
    {
      "type": "Feature",
      "properties": {
        "name": "Dustin Poirier",
        "gym_location": "American Top Team ATT Coconut Creek, FL",
        "weight_class": "Lightweight",
        "rank": "4"
      },
      "geometry": {
        "type": "Point",
        "coordinates": [
          -80.202009,
          26.297208
        ]
      }
    },
    {
      "type": "Feature",
      "properties": {
        "name": "Mateusz Gamrot",
        "gym_location": "American Top Team",
        "weight_class": "Lightweight",
        "rank": "5"
      },
      "geometry": {
        "type": "Point",
        "coordinates": [
          -73.431107,
          41.401486
        ]
      }
    },
    {
      "type": "Feature",
      "properties": {
        "name": "Michael Chandler",
        "gym_location": "Sanford MMA",
        "weight_class": "Lightweight",
        "rank": "6"
      },
      "geometry": {
        "type": "Point",
        "coordinates": [
          -81.320173,
          28.811337
        ]
      }
    },
    {
      "type": "Feature",
      "properties": {
        "name": "Beneil Dariush",
        "gym_location": "Kings MMA - Huntington Beach, CA",
        "weight_class": "Lightweight",
        "rank": "7"
      },
      "geometry": {
        "type": "Point",
        "coordinates": [
          -117.999588,
          33.7161
        ]
      }
    },
    {
      "type": "Feature",
      "properties": {
        "name": "Rafael Fiziev",
        "gym_location": "Tiger Muay Thai - Phuket, Thailand",
        "weight_class": "Lightweight",
        "rank": "8"
      },
      "geometry": {
        "type": "Point",
        "coordinates": [
          98.39086,
          7.882835
        ]
      }
    },
    {
      "type": "Feature",
      "properties": {
        "name": "Max Holloway",
        "gym_location": "Hawaii Elite MMA - Hawaii",
        "weight_class": "Lightweight",
        "rank": "9"
      },
      "geometry": {
        "type": "Point",
        "coordinates": [
          -155.860178,
          19.951097
        ]
      }
    },
    {
      "type": "Feature",
      "properties": {
        "name": "Renato Moicano",
        "gym_location": "American Top Team",
        "weight_class": "Lightweight",
        "rank": "10"
      },
      "geometry": {
        "type": "Point",
        "coordinates": [
          -73.431107,
          41.401486
        ]
      }
    },
    {
      "type": "Feature",
      "properties": {
        "name": "Dan Hooker",
        "gym_location": "Saigon Sports Club- Vietnam",
        "weight_class": "Lightweight",
        "rank": "11"
      },
      "geometry": {
        "type": "Point",
        "coordinates": [
          106.728993,
          10.739537
        ]
      }
    },
    {
      "type": "Feature",
      "properties": {
        "name": "Beno\u00eet Saint Denis",
        "gym_location": "Venum Training Camp Paris",
        "weight_class": "Lightweight",
        "rank": "12"
      },
      "geometry": {
        "type": "Point",
        "coordinates": [
          2.3483915,
          48.8534951
        ]
      }
    },
    {
      "type": "Feature",
      "properties": {
        "name": "Jalin Turner",
        "gym_location": "MMA",
        "weight_class": "Lightweight",
        "rank": "13"
      },
      "geometry": {
        "type": "Point",
        "coordinates": [
          25.609612,
          -25.837608
        ]
      }
    },
    {
      "type": "Feature",
      "properties": {
        "name": "Rafael Dos Anjos",
        "gym_location": "Kings MMA - Huntington Beach, CA",
        "weight_class": "Lightweight",
        "rank": "14"
      },
      "geometry": {
        "type": "Point",
        "coordinates": [
          -117.999588,
          33.7161
        ]
      }
    },
    {
      "type": "Feature",
      "properties": {
        "name": "Paddy Pimblett",
        "gym_location": "NEXT Generation MMA",
        "weight_class": "Lightweight",
        "rank": "15"
      },
      "geometry": {
        "type": "Point",
        "coordinates": [
          174.773006,
          -36.853851
        ]
      }
    },
    {
      "type": "Feature",
      "properties": {
        "name": "Belal Muhammad",
        "gym_location": "Roufusport, (Mikwaukee, WI) & Chicago Fight Team (Chicago, IL)",
        "weight_class": "Welterweight",
        "rank": "Champion"
      },
      "geometry": {
        "type": "Point",
        "coordinates": [
          -88.2049,
          41.884636
        ]
      }
    },
    {
      "type": "Feature",
      "properties": {
        "name": "Leon Edwards",
        "gym_location": "UTC Ultimate Training Centre Birmingham",
        "weight_class": "Welterweight",
        "rank": "1"
      },
      "geometry": {
        "type": "Point",
        "coordinates": [
          -73.973942,
          40.760587
        ]
      }
    },
    {
      "type": "Feature",
      "properties": {
        "name": "Kamaru Usman",
        "gym_location": "Blackzilians - Boca Raton, FL",
        "weight_class": "Welterweight",
        "rank": "2"
      },
      "geometry": {
        "type": "Point",
        "coordinates": [
          -80.102879,
          26.3709205
        ]
      }
    },
    {
      "type": "Feature",
      "properties": {
        "name": "Shavkat Rakhmonov",
        "gym_location": "Kill Cliff FC",
        "weight_class": "Welterweight",
        "rank": "3"
      },
      "geometry": {
        "type": "Point",
        "coordinates": [
          -73.030244,
          -36.927555
        ]
      }
    },
    {
      "type": "Feature",
      "properties": {
        "name": "Colby Covington",
        "gym_location": "MMA Masters - Miami, FL",
        "weight_class": "Welterweight",
        "rank": "4"
      },
      "geometry": {
        "type": "Point",
        "coordinates": [
          -80.194434,
          25.790915
        ]
      }
    },
    {
      "type": "Feature",
      "properties": {
        "name": "Jack Della Maddalena",
        "gym_location": "MMA",
        "weight_class": "Welterweight",
        "rank": "5"
      },
      "geometry": {
        "type": "Point",
        "coordinates": [
          25.609612,
          -25.837608
        ]
      }
    },
    {
      "type": "Feature",
      "properties": {
        "name": "Gilbert Burns",
        "gym_location": "Jaco Hybrid Training Center",
        "weight_class": "Welterweight",
        "rank": "6"
      },
      "geometry": {
        "type": "Point",
        "coordinates": [
          139.774374,
          35.704535
        ]
      }
    },
    {
      "type": "Feature",
      "properties": {
        "name": "Ian Machado Garry",
        "gym_location": "Gym information not found",
        "weight_class": "Welterweight",
        "rank": "7"
      },
      "geometry": {
        "type": "Point",
        "coordinates": [
          -93.379213,
          45.096305
        ]
      }
    },
    {
      "type": "Feature",
      "properties": {
        "name": "Sean Brady",
        "gym_location": "Brazilian Jiu-Jitsu",
        "weight_class": "Welterweight",
        "rank": "8"
      },
      "geometry": {
        "type": "Point",
        "coordinates": [
          -75.125668,
          40.096742
        ]
      }
    },
    {
      "type": "Feature",
      "properties": {
        "name": "Stephen Thompson",
        "gym_location": "Upstate Karate Family Martial Arts Center",
        "weight_class": "Welterweight",
        "rank": "9"
      },
      "geometry": {
        "type": "Point",
        "coordinates": [
          -71.774926,
          42.565902
        ]
      }
    },
    {
      "type": "Feature",
      "properties": {
        "name": "Geoff Neal",
        "gym_location": "Fortis MMA",
        "weight_class": "Welterweight",
        "rank": "10"
      },
      "geometry": {
        "type": "Point",
        "coordinates": [
          25.609612,
          -25.837608
        ]
      }
    },
    {
      "type": "Feature",
      "properties": {
        "name": "Joaquin Buckley",
        "gym_location": "Freestyle",
        "weight_class": "Welterweight",
        "rank": "11"
      },
      "geometry": {
        "type": "Point",
        "coordinates": [
          20.445516,
          44.809144
        ]
      }
    },
    {
      "type": "Feature",
      "properties": {
        "name": "Neil Magny",
        "gym_location": "Elevation Fight Team - Denver, CO",
        "weight_class": "Welterweight",
        "rank": "12"
      },
      "geometry": {
        "type": "Point",
        "coordinates": [
          -104.98613,
          39.74001
        ]
      }
    },
    {
      "type": "Feature",
      "properties": {
        "name": "Vicente Luque",
        "gym_location": "Blackzilians - Boca Raton, FL",
        "weight_class": "Welterweight",
        "rank": "13"
      },
      "geometry": {
        "type": "Point",
        "coordinates": [
          -80.102879,
          26.3709205
        ]
      }
    },
    {
      "type": "Feature",
      "properties": {
        "name": "Michael Page",
        "gym_location": "75",
        "weight_class": "Welterweight",
        "rank": "14"
      },
      "geometry": {
        "type": "Point",
        "coordinates": [
          -70.612449,
          -33.423581
        ]
      }
    },
    {
      "type": "Feature",
      "properties": {
        "name": "Kevin Holland",
        "gym_location": "Kung Fu",
        "weight_class": "Welterweight",
        "rank": "15"
      },
      "geometry": {
        "type": "Point",
        "coordinates": [
          -73.825741,
          40.74338
        ]
      }
    },
    {
      "type": "Feature",
      "properties": {
        "name": "Dricus Du Plessis",
        "gym_location": "MMA",
        "weight_class": "Middleweight",
        "rank": "Champion"
      },
      "geometry": {
        "type": "Point",
        "coordinates": [
          25.609612,
          -25.837608
        ]
      }
    },
    {
      "type": "Feature",
      "properties": {
        "name": "Sean Strickland",
        "gym_location": "Millennia MMA, Rancho, CA",
        "weight_class": "Middleweight",
        "rank": "1"
      },
      "geometry": {
        "type": "Point",
        "coordinates": [
          -117.545213,
          34.100554
        ]
      }
    },
    {
      "type": "Feature",
      "properties": {
        "name": "Israel Adesanya",
        "gym_location": "City Kickboxing",
        "weight_class": "Middleweight",
        "rank": "2"
      },
      "geometry": {
        "type": "Point",
        "coordinates": [
          174.75294,
          -36.865604
        ]
      }
    },
    {
      "type": "Feature",
      "properties": {
        "name": "Robert Whittaker",
        "gym_location": "PMA, Padstow NSW, Australia",
        "weight_class": "Middleweight",
        "rank": "3"
      },
      "geometry": {
        "type": "Point",
        "coordinates": [
          151.029661,
          -33.948677
        ]
      }
    },
    {
      "type": "Feature",
      "properties": {
        "name": "Nassourdine Imavov",
        "gym_location": "Venum Training Camp Paris",
        "weight_class": "Middleweight",
        "rank": "4"
      },
      "geometry": {
        "type": "Point",
        "coordinates": [
          2.3483915,
          48.8534951
        ]
      }
    },
    {
      "type": "Feature",
      "properties": {
        "name": "Jared Cannonier",
        "gym_location": "ABJJ + Gracie Barra Alaska",
        "weight_class": "Middleweight",
        "rank": "5"
      },
      "geometry": {
        "type": "Point",
        "coordinates": [
          -153.1809967,
          64.63586757
        ]
      }
    },
    {
      "type": "Feature",
      "properties": {
        "name": "Marvin Vettori",
        "gym_location": "Kings MMA - Huntington Beach, CA",
        "weight_class": "Middleweight",
        "rank": "6"
      },
      "geometry": {
        "type": "Point",
        "coordinates": [
          -117.999588,
          33.7161
        ]
      }
    },
    {
      "type": "Feature",
      "properties": {
        "name": "Brendan Allen",
        "gym_location": "Kill Cliff FC",
        "weight_class": "Middleweight",
        "rank": "7"
      },
      "geometry": {
        "type": "Point",
        "coordinates": [
          -73.030244,
          -36.927555
        ]
      }
    },
    {
      "type": "Feature",
      "properties": {
        "name": "Paulo Costa",
        "gym_location": "Team Borracha",
        "weight_class": "Middleweight",
        "rank": "8"
      },
      "geometry": {
        "type": "Point",
        "coordinates": [
          -38.490519,
          -13.011668
        ]
      }
    },
    {
      "type": "Feature",
      "properties": {
        "name": "Jack Hermansson",
        "gym_location": "Frontline Academy - Oslo",
        "weight_class": "Middleweight",
        "rank": "9"
      },
      "geometry": {
        "type": "Point",
        "coordinates": [
          -93.71859,
          32.4131
        ]
      }
    },
    {
      "type": "Feature",
      "properties": {
        "name": "Roman Dolidze",
        "gym_location": "Xtreme Couture - Las Vegas, NV",
        "weight_class": "Middleweight",
        "rank": "10"
      },
      "geometry": {
        "type": "Point",
        "coordinates": [
          -115.323575,
          36.226171
        ]
      }
    },
    {
      "type": "Feature",
      "properties": {
        "name": "Khamzat Chimaev",
        "gym_location": "74",
        "weight_class": "Middleweight",
        "rank": "11"
      },
      "geometry": {
        "type": "Point",
        "coordinates": [
          100.276836,
          13.548154
        ]
      }
    },
    {
      "type": "Feature",
      "properties": {
        "name": "Caio Borralho",
        "gym_location": "Combat Club",
        "weight_class": "Middleweight",
        "rank": "12"
      },
      "geometry": {
        "type": "Point",
        "coordinates": [
          -46.659576,
          -23.530178
        ]
      }
    },
    {
      "type": "Feature",
      "properties": {
        "name": "Michel Pereira",
        "gym_location": "Overcome Academy",
        "weight_class": "Middleweight",
        "rank": "13"
      },
      "geometry": {
        "type": "Point",
        "coordinates": [
          -75.1714785,
          39.956826
        ]
      }
    },
    {
      "type": "Feature",
      "properties": {
        "name": "Anthony Hernandez",
        "gym_location": "Striker",
        "weight_class": "Middleweight",
        "rank": "14"
      },
      "geometry": {
        "type": "Point",
        "coordinates": [
          -68.395309,
          18.662557
        ]
      }
    },
    {
      "type": "Feature",
      "properties": {
        "name": "Chris Curtis",
        "gym_location": "Xtreme Couture - Las Vegas, NV",
        "weight_class": "Middleweight",
        "rank": "15"
      },
      "geometry": {
        "type": "Point",
        "coordinates": [
          -115.323575,
          36.226171
        ]
      }
    },
    {
      "type": "Feature",
      "properties": {
        "name": "Alex Pereira",
        "gym_location": "Teixeira MMA & Fitness-Bethel, CT",
        "weight_class": "Light Heavyweight",
        "rank": "Champion"
      },
      "geometry": {
        "type": "Point",
        "coordinates": [
          -73.390839,
          41.416772
        ]
      }
    },
    {
      "type": "Feature",
      "properties": {
        "name": "Ji\u0159\u00ed Proch\u00e1zka",
        "gym_location": "JETSAAM GYM",
        "weight_class": "Light Heavyweight",
        "rank": "1"
      },
      "geometry": {
        "type": "Point",
        "coordinates": [
          29.074235,
          40.965341
        ]
      }
    },
    {
      "type": "Feature",
      "properties": {
        "name": "Magomed Ankalaev",
        "gym_location": "MMA",
        "weight_class": "Light Heavyweight",
        "rank": "2"
      },
      "geometry": {
        "type": "Point",
        "coordinates": [
          25.609612,
          -25.837608
        ]
      }
    },
    {
      "type": "Feature",
      "properties": {
        "name": "Jamahal Hill",
        "gym_location": "MMA",
        "weight_class": "Light Heavyweight",
        "rank": "3"
      },
      "geometry": {
        "type": "Point",
        "coordinates": [
          25.609612,
          -25.837608
        ]
      }
    },
    {
      "type": "Feature",
      "properties": {
        "name": "Jan B\u0142achowicz",
        "gym_location": "Gym information not found",
        "weight_class": "Light Heavyweight",
        "rank": "4"
      },
      "geometry": {
        "type": "Point",
        "coordinates": [
          -93.379213,
          45.096305
        ]
      }
    },
    {
      "type": "Feature",
      "properties": {
        "name": "Aleksandar Raki\u0107",
        "gym_location": "American Top Team Zagreb",
        "weight_class": "Light Heavyweight",
        "rank": "5"
      },
      "geometry": {
        "type": "Point",
        "coordinates": [
          -80.202009,
          26.297208
        ]
      }
    },
    {
      "type": "Feature",
      "properties": {
        "name": "Nikita Krylov",
        "gym_location": "Karate",
        "weight_class": "Light Heavyweight",
        "rank": "6"
      },
      "geometry": {
        "type": "Point",
        "coordinates": [
          36.24992,
          37.297172
        ]
      }
    },
    {
      "type": "Feature",
      "properties": {
        "name": "Volkan Oezdemir",
        "gym_location": "Allstars Training Center",
        "weight_class": "Light Heavyweight",
        "rank": "7"
      },
      "geometry": {
        "type": "Point",
        "coordinates": [
          18.048948,
          59.34866
        ]
      }
    },
    {
      "type": "Feature",
      "properties": {
        "name": "Khalil Rountree Jr.",
        "gym_location": "Syndicate MMA - Las Vegas, NV",
        "weight_class": "Light Heavyweight",
        "rank": "8"
      },
      "geometry": {
        "type": "Point",
        "coordinates": [
          -115.244765,
          36.057018
        ]
      }
    },
    {
      "type": "Feature",
      "properties": {
        "name": "Johnny Walker",
        "gym_location": "SBG Ireland",
        "weight_class": "Light Heavyweight",
        "rank": "9"
      },
      "geometry": {
        "type": "Point",
        "coordinates": [
          -8.8148025,
          53.9122935
        ]
      }
    },
    {
      "type": "Feature",
      "properties": {
        "name": "Carlos Ulberg",
        "gym_location": "City Kickboxing",
        "weight_class": "Light Heavyweight",
        "rank": "10"
      },
      "geometry": {
        "type": "Point",
        "coordinates": [
          174.75294,
          -36.865604
        ]
      }
    },
    {
      "type": "Feature",
      "properties": {
        "name": "Anthony Smith",
        "gym_location": "Mick Doyle's Kickboxing - Omaha, NE",
        "weight_class": "Light Heavyweight",
        "rank": "11"
      },
      "geometry": {
        "type": "Point",
        "coordinates": [
          -95.934525,
          41.257595
        ]
      }
    },
    {
      "type": "Feature",
      "properties": {
        "name": "Bogdan Guskov",
        "gym_location": "MMA",
        "weight_class": "Light Heavyweight",
        "rank": "12"
      },
      "geometry": {
        "type": "Point",
        "coordinates": [
          25.609612,
          -25.837608
        ]
      }
    },
    {
      "type": "Feature",
      "properties": {
        "name": "Dominick Reyes",
        "gym_location": "Teixeira MMA & Fitness-Bethel, CT",
        "weight_class": "Light Heavyweight",
        "rank": "13"
      },
      "geometry": {
        "type": "Point",
        "coordinates": [
          -73.390839,
          41.416772
        ]
      }
    },
    {
      "type": "Feature",
      "properties": {
        "name": "Azamat Murzakanov",
        "gym_location": "MMA",
        "weight_class": "Light Heavyweight",
        "rank": "14"
      },
      "geometry": {
        "type": "Point",
        "coordinates": [
          25.609612,
          -25.837608
        ]
      }
    },
    {
      "type": "Feature",
      "properties": {
        "name": "Alonzo Menifield",
        "gym_location": "Freestyle",
        "weight_class": "Light Heavyweight",
        "rank": "15"
      },
      "geometry": {
        "type": "Point",
        "coordinates": [
          20.445516,
          44.809144
        ]
      }
    },
    {
      "type": "Feature",
      "properties": {
        "name": "Jon Jones",
        "gym_location": "35",
        "weight_class": "Heavyweight",
        "rank": "Champion"
      },
      "geometry": {
        "type": "Point",
        "coordinates": [
          -87.568225,
          33.209826
        ]
      }
    },
    {
      "type": "Feature",
      "properties": {
        "name": "Tom Aspinall",
        "gym_location": "Team Kaobon",
        "weight_class": "Heavyweight",
        "rank": "1"
      },
      "geometry": {
        "type": "Point",
        "coordinates": [
          -99.161754,
          19.386111
        ]
      }
    },
    {
      "type": "Feature",
      "properties": {
        "name": "Ciryl Gane",
        "gym_location": "MMA Factory - Paris, France",
        "weight_class": "Heavyweight",
        "rank": "2"
      },
      "geometry": {
        "type": "Point",
        "coordinates": [
          2.283102,
          48.868455
        ]
      }
    },
    {
      "type": "Feature",
      "properties": {
        "name": "Alexander Volkov",
        "gym_location": "Global Fight Gym",
        "weight_class": "Heavyweight",
        "rank": "3"
      },
      "geometry": {
        "type": "Point",
        "coordinates": [
          -1.181197,
          50.645261
        ]
      }
    },
    {
      "type": "Feature",
      "properties": {
        "name": "Sergei Pavlovich",
        "gym_location": "MMA",
        "weight_class": "Heavyweight",
        "rank": "4"
      },
      "geometry": {
        "type": "Point",
        "coordinates": [
          25.609612,
          -25.837608
        ]
      }
    },
    {
      "type": "Feature",
      "properties": {
        "name": "Curtis Blaydes",
        "gym_location": "Dutch Style MMA/ UFC Gym Lombard IL",
        "weight_class": "Heavyweight",
        "rank": "5"
      },
      "geometry": {
        "type": "Point",
        "coordinates": [
          -88.01974,
          41.886932
        ]
      }
    },
    {
      "type": "Feature",
      "properties": {
        "name": "Stipe Miocic",
        "gym_location": "Strongstyle Fight Team",
        "weight_class": "Heavyweight",
        "rank": "6"
      },
      "geometry": {
        "type": "Point",
        "coordinates": [
          -1.17521,
          50.836905
        ]
      }
    },
    {
      "type": "Feature",
      "properties": {
        "name": "Jailton Almeida",
        "gym_location": "Boxing",
        "weight_class": "Heavyweight",
        "rank": "7"
      },
      "geometry": {
        "type": "Point",
        "coordinates": [
          121.438435,
          31.212586
        ]
      }
    },
    {
      "type": "Feature",
      "properties": {
        "name": "Marcin Tybura",
        "gym_location": "S4 Warszawa",
        "weight_class": "Heavyweight",
        "rank": "8"
      },
      "geometry": {
        "type": "Point",
        "coordinates": [
          21.116658,
          51.016884
        ]
      }
    },
    {
      "type": "Feature",
      "properties": {
        "name": "Serghei Spivac",
        "gym_location": "Polar Bear Team",
        "weight_class": "Heavyweight",
        "rank": "9"
      },
      "geometry": {
        "type": "Point",
        "coordinates": [
          -83.985191,
          34.144025
        ]
      }
    },
    {
      "type": "Feature",
      "properties": {
        "name": "Tai Tuivasa",
        "gym_location": "Team Tuivasa",
        "weight_class": "Heavyweight",
        "rank": "10"
      },
      "geometry": {
        "type": "Point",
        "coordinates": [
          -99.161754,
          19.386111
        ]
      }
    },
    {
      "type": "Feature",
      "properties": {
        "name": "Derrick Lewis",
        "gym_location": "4oz Fight Club",
        "weight_class": "Heavyweight",
        "rank": "11"
      },
      "geometry": {
        "type": "Point",
        "coordinates": [
          8.715549,
          44.416004
        ]
      }
    },
    {
      "type": "Feature",
      "properties": {
        "name": "Jairzinho Rozenstruik",
        "gym_location": "American Top Team",
        "weight_class": "Heavyweight",
        "rank": "12"
      },
      "geometry": {
        "type": "Point",
        "coordinates": [
          -73.431107,
          41.401486
        ]
      }
    },
    {
      "type": "Feature",
      "properties": {
        "name": "Alexandr Romanov",
        "gym_location": "Wrestler",
        "weight_class": "Heavyweight",
        "rank": "13"
      },
      "geometry": {
        "type": "Point",
        "coordinates": [
          -0.217313,
          51.770255
        ]
      }
    },
    {
      "type": "Feature",
      "properties": {
        "name": "Marcos Rogerio de Lima",
        "gym_location": "011 MMA TEAM",
        "weight_class": "Heavyweight",
        "rank": "14"
      },
      "geometry": {
        "type": "Point",
        "coordinates": [
          -46.642291,
          -23.572591
        ]
      }
    },
    {
      "type": "Feature",
      "properties": {
        "name": "Rodrigo Nascimento",
        "gym_location": "American Top Team",
        "weight_class": "Heavyweight",
        "rank": "15"
      },
      "geometry": {
        "type": "Point",
        "coordinates": [
          -73.431107,
          41.401486
        ]
      }
    },
    {
      "type": "Feature",
      "properties": {
        "name": "Alexa Grasso",
        "gym_location": "Lobo Gym MMA",
        "weight_class": "Women's Pound-for-Pound Top Rank",
        "rank": "Champion"
      },
      "geometry": {
        "type": "Point",
        "coordinates": [
          -104.968357,
          39.730742
        ]
      }
    },
    {
      "type": "Feature",
      "properties": {
        "name": "Alexa Grasso",
        "gym_location": "Lobo Gym MMA",
        "weight_class": "Women's Pound-for-Pound Top Rank",
        "rank": "1"
      },
      "geometry": {
        "type": "Point",
        "coordinates": [
          -104.968357,
          39.730742
        ]
      }
    },
    {
      "type": "Feature",
      "properties": {
        "name": "Zhang Weili",
        "gym_location": "Muay Thai",
        "weight_class": "Women's Pound-for-Pound Top Rank",
        "rank": "2"
      },
      "geometry": {
        "type": "Point",
        "coordinates": [
          98.813206,
          8.046092
        ]
      }
    },
    {
      "type": "Feature",
      "properties": {
        "name": "Valentina Shevchenko",
        "gym_location": "Tiger Muay Thai - Phuket, Thailand",
        "weight_class": "Women's Pound-for-Pound Top Rank",
        "rank": "3"
      },
      "geometry": {
        "type": "Point",
        "coordinates": [
          98.39086,
          7.882835
        ]
      }
    },
    {
      "type": "Feature",
      "properties": {
        "name": "Manon Fiorot",
        "gym_location": "Karate",
        "weight_class": "Women's Pound-for-Pound Top Rank",
        "rank": "4"
      },
      "geometry": {
        "type": "Point",
        "coordinates": [
          36.24992,
          37.297172
        ]
      }
    },
    {
      "type": "Feature",
      "properties": {
        "name": "Julianna Pe\u00f1a",
        "gym_location": "Sik-Jitsu Spokane, WA",
        "weight_class": "Women's Pound-for-Pound Top Rank",
        "rank": "5"
      },
      "geometry": {
        "type": "Point",
        "coordinates": [
          -117.42208,
          47.65903
        ]
      }
    },
    {
      "type": "Feature",
      "properties": {
        "name": "Raquel Pennington",
        "gym_location": "Colorado Springs BJJ",
        "weight_class": "Women's Pound-for-Pound Top Rank",
        "rank": "6"
      },
      "geometry": {
        "type": "Point",
        "coordinates": [
          -105.940268,
          39.60683
        ]
      }
    },
    {
      "type": "Feature",
      "properties": {
        "name": "Rose Namajunas",
        "gym_location": "Grudge Training Center",
        "weight_class": "Women's Pound-for-Pound Top Rank",
        "rank": "7"
      },
      "geometry": {
        "type": "Point",
        "coordinates": [
          -105.109354,
          39.776285
        ]
      }
    },
    {
      "type": "Feature",
      "properties": {
        "name": "Erin Blanchfield",
        "gym_location": "Jiu-Jitsu",
        "weight_class": "Women's Pound-for-Pound Top Rank",
        "rank": "8"
      },
      "geometry": {
        "type": "Point",
        "coordinates": [
          -73.663302,
          41.003537
        ]
      }
    },
    {
      "type": "Feature",
      "properties": {
        "name": "Tatiana Suarez",
        "gym_location": "Millennia MMA - Rancho Cucamonga, CA",
        "weight_class": "Women's Pound-for-Pound Top Rank",
        "rank": "9"
      },
      "geometry": {
        "type": "Point",
        "coordinates": [
          -117.545213,
          34.100554
        ]
      }
    },
    {
      "type": "Feature",
      "properties": {
        "name": "Yan Xiaonan",
        "gym_location": "China Top Team Beijing",
        "weight_class": "Women's Pound-for-Pound Top Rank",
        "rank": "10"
      },
      "geometry": {
        "type": "Point",
        "coordinates": [
          116.3912757,
          39.906217
        ]
      }
    },
    {
      "type": "Feature",
      "properties": {
        "name": "J\u00e9ssica Andrade",
        "gym_location": "PRVT Para Vale Tudo",
        "weight_class": "Women's Pound-for-Pound Top Rank",
        "rank": "11"
      },
      "geometry": {
        "type": "Point",
        "coordinates": [
          -53.1382861,
          -4.046127836
        ]
      }
    },
    {
      "type": "Feature",
      "properties": {
        "name": "Kayla Harrison",
        "gym_location": "Judo",
        "weight_class": "Women's Pound-for-Pound Top Rank",
        "rank": "12"
      },
      "geometry": {
        "type": "Point",
        "coordinates": [
          -122.260694,
          37.82098
        ]
      }
    },
    {
      "type": "Feature",
      "properties": {
        "name": "Virna Jandiroba",
        "gym_location": "Jiu-Jitsu",
        "weight_class": "Women's Pound-for-Pound Top Rank",
        "rank": "13"
      },
      "geometry": {
        "type": "Point",
        "coordinates": [
          -73.663302,
          41.003537
        ]
      }
    },
    {
      "type": "Feature",
      "properties": {
        "name": "Ketlen Vieira",
        "gym_location": "Judo",
        "weight_class": "Women's Pound-for-Pound Top Rank",
        "rank": "14"
      },
      "geometry": {
        "type": "Point",
        "coordinates": [
          -122.260694,
          37.82098
        ]
      }
    },
    {
      "type": "Feature",
      "properties": {
        "name": "Amanda Lemos",
        "gym_location": "Marajo Brothers",
        "weight_class": "Women's Pound-for-Pound Top Rank",
        "rank": "15"
      },
      "geometry": {
        "type": "Point",
        "coordinates": [
          -9.547788,
          30.40204
        ]
      }
    },
    {
      "type": "Feature",
      "properties": {
        "name": "Zhang Weili",
        "gym_location": "Muay Thai",
        "weight_class": "Women's Strawweight",
        "rank": "Champion"
      },
      "geometry": {
        "type": "Point",
        "coordinates": [
          98.813206,
          8.046092
        ]
      }
    },
    {
      "type": "Feature",
      "properties": {
        "name": "Tatiana Suarez",
        "gym_location": "Millennia MMA - Rancho Cucamonga, CA",
        "weight_class": "Women's Strawweight",
        "rank": "1"
      },
      "geometry": {
        "type": "Point",
        "coordinates": [
          -117.545213,
          34.100554
        ]
      }
    },
    {
      "type": "Feature",
      "properties": {
        "name": "Yan Xiaonan",
        "gym_location": "China Top Team Beijing",
        "weight_class": "Women's Strawweight",
        "rank": "2"
      },
      "geometry": {
        "type": "Point",
        "coordinates": [
          116.3912757,
          39.906217
        ]
      }
    },
    {
      "type": "Feature",
      "properties": {
        "name": "Virna Jandiroba",
        "gym_location": "Jiu-Jitsu",
        "weight_class": "Women's Strawweight",
        "rank": "3"
      },
      "geometry": {
        "type": "Point",
        "coordinates": [
          -73.663302,
          41.003537
        ]
      }
    },
    {
      "type": "Feature",
      "properties": {
        "name": "J\u00e9ssica Andrade",
        "gym_location": "PRVT Para Vale Tudo",
        "weight_class": "Women's Strawweight",
        "rank": "4"
      },
      "geometry": {
        "type": "Point",
        "coordinates": [
          -53.1382861,
          -4.046127836
        ]
      }
    },
    {
      "type": "Feature",
      "properties": {
        "name": "Amanda Lemos",
        "gym_location": "Marajo Brothers",
        "weight_class": "Women's Strawweight",
        "rank": "5"
      },
      "geometry": {
        "type": "Point",
        "coordinates": [
          -9.547788,
          30.40204
        ]
      }
    },
    {
      "type": "Feature",
      "properties": {
        "name": "Marina Rodriguez",
        "gym_location": "Muay Thai",
        "weight_class": "Women's Strawweight",
        "rank": "6"
      },
      "geometry": {
        "type": "Point",
        "coordinates": [
          98.813206,
          8.046092
        ]
      }
    },
    {
      "type": "Feature",
      "properties": {
        "name": "Mackenzie Dern",
        "gym_location": "Megaton Dias BJJ",
        "weight_class": "Women's Strawweight",
        "rank": "7"
      },
      "geometry": {
        "type": "Point",
        "coordinates": [
          28.825935,
          40.21764
        ]
      }
    },
    {
      "type": "Feature",
      "properties": {
        "name": "Amanda Ribas",
        "gym_location": "Judo",
        "weight_class": "Women's Strawweight",
        "rank": "8"
      },
      "geometry": {
        "type": "Point",
        "coordinates": [
          -122.260694,
          37.82098
        ]
      }
    },
    {
      "type": "Feature",
      "properties": {
        "name": "Angela Hill",
        "gym_location": "Muay Thai",
        "weight_class": "Women's Strawweight",
        "rank": "9"
      },
      "geometry": {
        "type": "Point",
        "coordinates": [
          98.813206,
          8.046092
        ]
      }
    },
    {
      "type": "Feature",
      "properties": {
        "name": "Loopy Godinez",
        "gym_location": "30",
        "weight_class": "Women's Strawweight",
        "rank": "10"
      },
      "geometry": {
        "type": "Point",
        "coordinates": [
          -69.321993,
          10.077764
        ]
      }
    },
    {
      "type": "Feature",
      "properties": {
        "name": "Tabatha Ricci",
        "gym_location": "Judo",
        "weight_class": "Women's Strawweight",
        "rank": "11"
      },
      "geometry": {
        "type": "Point",
        "coordinates": [
          -122.260694,
          37.82098
        ]
      }
    },
    {
      "type": "Feature",
      "properties": {
        "name": "Luana Pinheiro",
        "gym_location": "Judo",
        "weight_class": "Women's Strawweight",
        "rank": "12"
      },
      "geometry": {
        "type": "Point",
        "coordinates": [
          -122.260694,
          37.82098
        ]
      }
    },
    {
      "type": "Feature",
      "properties": {
        "name": "Gillian Robertson",
        "gym_location": "MMA",
        "weight_class": "Women's Strawweight",
        "rank": "13"
      },
      "geometry": {
        "type": "Point",
        "coordinates": [
          25.609612,
          -25.837608
        ]
      }
    },
    {
      "type": "Feature",
      "properties": {
        "name": "Iasmin Lucindo",
        "gym_location": "Striker",
        "weight_class": "Women's Strawweight",
        "rank": "14"
      },
      "geometry": {
        "type": "Point",
        "coordinates": [
          -68.395309,
          18.662557
        ]
      }
    },
    {
      "type": "Feature",
      "properties": {
        "name": "Karolina Kowalkiewicz",
        "gym_location": "Gracie Barra Lodz",
        "weight_class": "Women's Strawweight",
        "rank": "15"
      },
      "geometry": {
        "type": "Point",
        "coordinates": [
          19.661135,
          52.238667
        ]
      }
    },
    {
      "type": "Feature",
      "properties": {
        "name": "Alexa Grasso",
        "gym_location": "Lobo Gym MMA",
        "weight_class": "Women's Flyweight",
        "rank": "Champion"
      },
      "geometry": {
        "type": "Point",
        "coordinates": [
          -104.968357,
          39.730742
        ]
      }
    },
    {
      "type": "Feature",
      "properties": {
        "name": "Valentina Shevchenko",
        "gym_location": "Tiger Muay Thai - Phuket, Thailand",
        "weight_class": "Women's Flyweight",
        "rank": "1"
      },
      "geometry": {
        "type": "Point",
        "coordinates": [
          98.39086,
          7.882835
        ]
      }
    },
    {
      "type": "Feature",
      "properties": {
        "name": "Manon Fiorot",
        "gym_location": "Karate",
        "weight_class": "Women's Flyweight",
        "rank": "2"
      },
      "geometry": {
        "type": "Point",
        "coordinates": [
          36.24992,
          37.297172
        ]
      }
    },
    {
      "type": "Feature",
      "properties": {
        "name": "Erin Blanchfield",
        "gym_location": "Jiu-Jitsu",
        "weight_class": "Women's Flyweight",
        "rank": "3"
      },
      "geometry": {
        "type": "Point",
        "coordinates": [
          -73.663302,
          41.003537
        ]
      }
    },
    {
      "type": "Feature",
      "properties": {
        "name": "Maycee Barber",
        "gym_location": "Team Alpha Male",
        "weight_class": "Women's Flyweight",
        "rank": "4"
      },
      "geometry": {
        "type": "Point",
        "coordinates": [
          102.26126,
          2.182126
        ]
      }
    },
    {
      "type": "Feature",
      "properties": {
        "name": "Rose Namajunas",
        "gym_location": "Grudge Training Center",
        "weight_class": "Women's Flyweight",
        "rank": "5"
      },
      "geometry": {
        "type": "Point",
        "coordinates": [
          -105.109354,
          39.776285
        ]
      }
    },
    {
      "type": "Feature",
      "properties": {
        "name": "J\u00e9ssica Andrade",
        "gym_location": "PRVT Para Vale Tudo",
        "weight_class": "Women's Flyweight",
        "rank": "6"
      },
      "geometry": {
        "type": "Point",
        "coordinates": [
          -53.1382861,
          -4.046127836
        ]
      }
    },
    {
      "type": "Feature",
      "properties": {
        "name": "Katlyn Cerminara",
        "gym_location": "Renzo Gracie Academy",
        "weight_class": "Women's Flyweight",
        "rank": "7"
      },
      "geometry": {
        "type": "Point",
        "coordinates": [
          -73.993678,
          40.748975
        ]
      }
    },
    {
      "type": "Feature",
      "properties": {
        "name": "Natalia Silva",
        "gym_location": "Taekwondo",
        "weight_class": "Women's Flyweight",
        "rank": "8"
      },
      "geometry": {
        "type": "Point",
        "coordinates": [
          -46.623031,
          -23.504627
        ]
      }
    },
    {
      "type": "Feature",
      "properties": {
        "name": "Amanda Ribas",
        "gym_location": "Judo",
        "weight_class": "Women's Flyweight",
        "rank": "9"
      },
      "geometry": {
        "type": "Point",
        "coordinates": [
          -122.260694,
          37.82098
        ]
      }
    },
    {
      "type": "Feature",
      "properties": {
        "name": "Viviane Ara\u00fajo",
        "gym_location": "MMA",
        "weight_class": "Women's Flyweight",
        "rank": "10"
      },
      "geometry": {
        "type": "Point",
        "coordinates": [
          25.609612,
          -25.837608
        ]
      }
    },
    {
      "type": "Feature",
      "properties": {
        "name": "Karine Silva",
        "gym_location": "Gile Ribeiro - Curitiba, Brazil",
        "weight_class": "Women's Flyweight",
        "rank": "11"
      },
      "geometry": {
        "type": "Point",
        "coordinates": [
          -48.31669,
          -5.748406
        ]
      }
    },
    {
      "type": "Feature",
      "properties": {
        "name": "Tracy Cortez",
        "gym_location": "MMA",
        "weight_class": "Women's Flyweight",
        "rank": "12"
      },
      "geometry": {
        "type": "Point",
        "coordinates": [
          25.609612,
          -25.837608
        ]
      }
    },
    {
      "type": "Feature",
      "properties": {
        "name": "Ariane da Silva",
        "gym_location": "Gym information not found",
        "weight_class": "Women's Flyweight",
        "rank": "13"
      },
      "geometry": {
        "type": "Point",
        "coordinates": [
          -93.379213,
          45.096305
        ]
      }
    },
    {
      "type": "Feature",
      "properties": {
        "name": "Jasmine Jasudavicius",
        "gym_location": "Niagara Top Team",
        "weight_class": "Women's Flyweight",
        "rank": "14"
      },
      "geometry": {
        "type": "Point",
        "coordinates": [
          -79.386412,
          43.669629
        ]
      }
    },
    {
      "type": "Feature",
      "properties": {
        "name": "Casey O'Neill",
        "gym_location": "Gym information not found",
        "weight_class": "Women's Flyweight",
        "rank": "15"
      },
      "geometry": {
        "type": "Point",
        "coordinates": [
          -93.379213,
          45.096305
        ]
      }
    },
    {
      "type": "Feature",
      "properties": {
        "name": "Raquel Pennington",
        "gym_location": "Colorado Springs BJJ",
        "weight_class": "Women's Bantamweight",
        "rank": "Champion"
      },
      "geometry": {
        "type": "Point",
        "coordinates": [
          -105.940268,
          39.60683
        ]
      }
    },
    {
      "type": "Feature",
      "properties": {
        "name": "Julianna Pe\u00f1a",
        "gym_location": "Sik-Jitsu Spokane, WA",
        "weight_class": "Women's Bantamweight",
        "rank": "1"
      },
      "geometry": {
        "type": "Point",
        "coordinates": [
          -117.42208,
          47.65903
        ]
      }
    },
    {
      "type": "Feature",
      "properties": {
        "name": "Ketlen Vieira",
        "gym_location": "Judo",
        "weight_class": "Women's Bantamweight",
        "rank": "2"
      },
      "geometry": {
        "type": "Point",
        "coordinates": [
          -122.260694,
          37.82098
        ]
      }
    },
    {
      "type": "Feature",
      "properties": {
        "name": "Kayla Harrison",
        "gym_location": "Judo",
        "weight_class": "Women's Bantamweight",
        "rank": "3"
      },
      "geometry": {
        "type": "Point",
        "coordinates": [
          -122.260694,
          37.82098
        ]
      }
    },
    {
      "type": "Feature",
      "properties": {
        "name": "Irene Aldana",
        "gym_location": "Striker",
        "weight_class": "Women's Bantamweight",
        "rank": "4"
      },
      "geometry": {
        "type": "Point",
        "coordinates": [
          -68.395309,
          18.662557
        ]
      }
    },
    {
      "type": "Feature",
      "properties": {
        "name": "Macy Chiasson",
        "gym_location": "Fortis MMA",
        "weight_class": "Women's Bantamweight",
        "rank": "5"
      },
      "geometry": {
        "type": "Point",
        "coordinates": [
          25.609612,
          -25.837608
        ]
      }
    },
    {
      "type": "Feature",
      "properties": {
        "name": "Mayra Bueno Silva",
        "gym_location": "Striker",
        "weight_class": "Women's Bantamweight",
        "rank": "6"
      },
      "geometry": {
        "type": "Point",
        "coordinates": [
          -68.395309,
          18.662557
        ]
      }
    },
    {
      "type": "Feature",
      "properties": {
        "name": "Holly Holm",
        "gym_location": "Joel Diaz Boxing",
        "weight_class": "Women's Bantamweight",
        "rank": "7"
      },
      "geometry": {
        "type": "Point",
        "coordinates": [
          -98.13104,
          19.428492
        ]
      }
    },
    {
      "type": "Feature",
      "properties": {
        "name": "Karol Rosa",
        "gym_location": "Muay Thai",
        "weight_class": "Women's Bantamweight",
        "rank": "8"
      },
      "geometry": {
        "type": "Point",
        "coordinates": [
          98.813206,
          8.046092
        ]
      }
    },
    {
      "type": "Feature",
      "properties": {
        "name": "Miesha Tate",
        "gym_location": "Xtreme Couture - Las Vegas, NV",
        "weight_class": "Women's Bantamweight",
        "rank": "9"
      },
      "geometry": {
        "type": "Point",
        "coordinates": [
          -115.323575,
          36.226171
        ]
      }
    },
    {
      "type": "Feature",
      "properties": {
        "name": "Norma Dumont",
        "gym_location": "33",
        "weight_class": "Women's Bantamweight",
        "rank": "10"
      },
      "geometry": {
        "type": "Point",
        "coordinates": [
          -80.131015,
          25.784059
        ]
      }
    },
    {
      "type": "Feature",
      "properties": {
        "name": "Pannie Kianzad",
        "gym_location": "MMA",
        "weight_class": "Women's Bantamweight",
        "rank": "11"
      },
      "geometry": {
        "type": "Point",
        "coordinates": [
          25.609612,
          -25.837608
        ]
      }
    },
    {
      "type": "Feature",
      "properties": {
        "name": "Yana Santos",
        "gym_location": "American Top Team",
        "weight_class": "Women's Bantamweight",
        "rank": "12"
      },
      "geometry": {
        "type": "Point",
        "coordinates": [
          -73.431107,
          41.401486
        ]
      }
    },
    {
      "type": "Feature",
      "properties": {
        "name": "Julia Avila",
        "gym_location": "36",
        "weight_class": "Women's Bantamweight",
        "rank": "13"
      },
      "geometry": {
        "type": "Point",
        "coordinates": [
          103.592364,
          -1.617179
        ]
      }
    },
    {
      "type": "Feature",
      "properties": {
        "name": "Chelsea Chandler",
        "gym_location": "MMA",
        "weight_class": "Women's Bantamweight",
        "rank": "14"
      },
      "geometry": {
        "type": "Point",
        "coordinates": [
          25.609612,
          -25.837608
        ]
      }
    },
    {
      "type": "Feature",
      "properties": {
        "name": "Germaine de Randamie",
        "gym_location": "Team Germaine- csa Holland",
        "weight_class": "Women's Bantamweight",
        "rank": "15"
      },
      "geometry": {
        "type": "Point",
        "coordinates": [
          4.412035,
          51.939472
        ]
      }
    }
  ]
}