{
  "type": "FeatureCollection",
  "features": [
    {
      "type": "Feature",
      "properties": {
        "gym_location": "American Top Team",
        "fighters": "Alexandre Pantoja (Flyweight - Champion)<br>Cody Durden (Flyweight - 15)<br>Mateusz Gamrot (Lightweight - 5)<br>Renato Moicano (Lightweight - 10)<br>Jairzinho Rozenstruik (Heavyweight - 12)<br>Rodrigo Nascimento (Heavyweight - 15)<br>Yana Santos (Women's Bantamweight - 12)"
      },
      "geometry": {
        "type": "Point",
        "coordinates": [
          -80.21597394,
          26.72796852
        ]
      }
    },
    {
      "type": "Feature",
      "properties": {
        "gym_location": "Factory X",
        "fighters": "Brandon Royval (Flyweight - 1)<br>Jonathan Martinez (Bantamweight - 14)"
      },
      "geometry": {
        "type": "Point",
        "coordinates": [
          -105.011848,
          39.63047099
        ]
      }
    },
    {
      "type": "Feature",
      "properties": {
        "gym_location": "Jiu-Jitsu",
        "fighters": "Brandon Moreno (Flyweight - 2)<br>Diego Lopes (Featherweight - 12)<br>Dan Ige (Featherweight - 14)<br>Erin Blanchfield (Women's Pound-for-Pound Top Rank - 8)<br>Virna Jandiroba (Women's Pound-for-Pound Top Rank - 13)<br>Virna Jandiroba (Women's Strawweight - 3)<br>Erin Blanchfield (Women's Flyweight - 3)"
      },
      "geometry": {
        "type": "Point",
        "coordinates": [
          1.0,
          1.0
        ]
      }
    },
    {
      "type": "Feature",
      "properties": {
        "gym_location": "Xtreme Couture - Las Vegas, NV",
        "fighters": "Amir Albazi (Flyweight - 3)<br>Manel Kape (Flyweight - 9)<br>Roman Dolidze (Middleweight - 10)<br>Chris Curtis (Middleweight - 15)<br>Miesha Tate (Women's Bantamweight - 9)"
      },
      "geometry": {
        "type": "Point",
        "coordinates": [
          -115.323575,
          36.226171
        ]
      }
    },
    {
      "type": "Feature",
      "properties": {
        "gym_location": "City Kickboxing",
        "fighters": "Kai Kara-France (Flyweight - 4)<br>Israel Adesanya (Middleweight - 2)<br>Carlos Ulberg (Light Heavyweight - 10)"
      },
      "geometry": {
        "type": "Point",
        "coordinates": [
          174.75294,
          -36.865604
        ]
      }
    },
    {
      "type": "Feature",
      "properties": {
        "gym_location": "24",
        "fighters": "Tatsuro Taira (Flyweight - 5)"
      },
      "geometry": {
        "type": "Point",
        "coordinates": [
          1.0,
          1.0
        ]
      }
    },
    {
      "type": "Feature",
      "properties": {
        "gym_location": "Syndicate MMA",
        "fighters": "Alex Perez (Flyweight - 6)"
      },
      "geometry": {
        "type": "Point",
        "coordinates": [
          -115.245147,
          36.056956
        ]
      }
    },
    {
      "type": "Feature",
      "properties": {
        "gym_location": "MMA",
        "fighters": "Steve Erceg (Flyweight - 7)<br>Cory Sandhagen (Bantamweight - 2)<br>Umar Nurmagomedov (Bantamweight - 10)<br>Bryce Mitchell (Featherweight - 13)<br>Jalin Turner (Lightweight - 13)<br>Jack Della Maddalena (Welterweight - 5)<br>Dricus Du Plessis (Middleweight - Champion)<br>Magomed Ankalaev (Light Heavyweight - 2)<br>Jamahal Hill (Light Heavyweight - 3)<br>Bogdan Guskov (Light Heavyweight - 12)<br>Azamat Murzakanov (Light Heavyweight - 14)<br>Sergei Pavlovich (Heavyweight - 4)<br>Gillian Robertson (Women's Strawweight - 13)<br>Viviane Ara\u00fajo (Women's Flyweight - 10)<br>Tracy Cortez (Women's Flyweight - 12)<br>Pannie Kianzad (Women's Bantamweight - 11)<br>Chelsea Chandler (Women's Bantamweight - 14)"
      },
      "geometry": {
        "type": "Point",
        "coordinates": [
          1.0,
          1.0
        ]
      }
    },
    {
      "type": "Feature",
      "properties": {
        "gym_location": "Nova Uniao - Rio de Janeiro",
        "fighters": "Matheus Nicolau (Flyweight - 8)"
      },
      "geometry": {
        "type": "Point",
        "coordinates": [
          -43.1776715,
          -22.936483
        ]
      }
    },
    {
      "type": "Feature",
      "properties": {
        "gym_location": "Freestyle",
        "fighters": "Tim Elliott (Flyweight - 10)<br>Joaquin Buckley (Welterweight - 11)<br>Alonzo Menifield (Light Heavyweight - 15)"
      },
      "geometry": {
        "type": "Point",
        "coordinates": [
          158.2470669,
          -31.43803723
        ]
      }
    },
    {
      "type": "Feature",
      "properties": {
        "gym_location": "Boxing",
        "fighters": "Matt Schnell (Flyweight - 11)<br>Jailton Almeida (Heavyweight - 7)"
      },
      "geometry": {
        "type": "Point",
        "coordinates": [
          1.0,
          1.0
        ]
      }
    },
    {
      "type": "Feature",
      "properties": {
        "gym_location": "Eagles MMA Team",
        "fighters": "Tagir Ulanbekov (Flyweight - 12)"
      },
      "geometry": {
        "type": "Point",
        "coordinates": [
          37.45371394,
          55.72600052
        ]
      }
    },
    {
      "type": "Feature",
      "properties": {
        "gym_location": "Grappler",
        "fighters": "Bruno Silva (Flyweight - 13)<br>Marlon Vera (Bantamweight - 4)"
      },
      "geometry": {
        "type": "Point",
        "coordinates": [
          1.0,
          1.0
        ]
      }
    },
    {
      "type": "Feature",
      "properties": {
        "gym_location": "Gym information not found",
        "fighters": "Asu Almabayev (Flyweight - 14)<br>Ian Machado Garry (Welterweight - 7)<br>Jan B\u0142achowicz (Light Heavyweight - 4)<br>Ariane da Silva (Women's Flyweight - 13)<br>Casey O'Neill (Women's Flyweight - 15)"
      },
      "geometry": {
        "type": "Point",
        "coordinates": [
          1.0,
          1.0
        ]
      }
    },
    {
      "type": "Feature",
      "properties": {
        "gym_location": "MMA LAB - Glendale, AZ",
        "fighters": "Sean O'Malley (Bantamweight - Champion)"
      },
      "geometry": {
        "type": "Point",
        "coordinates": [
          -112.18309,
          33.53855
        ]
      }
    },
    {
      "type": "Feature",
      "properties": {
        "gym_location": "Team Serra/Longo",
        "fighters": "Merab Dvalishvili (Bantamweight - 1)"
      },
      "geometry": {
        "type": "Point",
        "coordinates": [
          -73.61151018,
          40.72908221
        ]
      }
    },
    {
      "type": "Feature",
      "properties": {
        "gym_location": "Team Yan",
        "fighters": "Petr Yan (Bantamweight - 3)"
      },
      "geometry": {
        "type": "Point",
        "coordinates": [
          1.0,
          1.0
        ]
      }
    },
    {
      "type": "Feature",
      "properties": {
        "gym_location": "Fight Ready - Scottsdale, AZ",
        "fighters": "Henry Cejudo (Bantamweight - 5)"
      },
      "geometry": {
        "type": "Point",
        "coordinates": [
          -111.92618,
          33.496822
        ]
      }
    },
    {
      "type": "Feature",
      "properties": {
        "gym_location": "Team Figueiredo",
        "fighters": "Deiveson Figueiredo (Bantamweight - 6)"
      },
      "geometry": {
        "type": "Point",
        "coordinates": [
          1.0,
          1.0
        ]
      }
    },
    {
      "type": "Feature",
      "properties": {
        "gym_location": "Team Alpha Male",
        "fighters": "Song Yadong (Bantamweight - 7)<br>Maycee Barber (Women's Flyweight - 4)"
      },
      "geometry": {
        "type": "Point",
        "coordinates": [
          -121.4255428,
          38.55326537
        ]
      }
    },
    {
      "type": "Feature",
      "properties": {
        "gym_location": "Sityodtong - Boston",
        "fighters": "Rob Font (Bantamweight - 9)"
      },
      "geometry": {
        "type": "Point",
        "coordinates": [
          -71.0568,
          42.38768866
        ]
      }
    },
    {
      "type": "Feature",
      "properties": {
        "gym_location": "The MMA Lab",
        "fighters": "Kyler Phillips (Bantamweight - 11)<br>Mario Bautista (Bantamweight - 12)"
      },
      "geometry": {
        "type": "Point",
        "coordinates": [
          -112.1172716,
          33.64263601
        ]
      }
    },
    {
      "type": "Feature",
      "properties": {
        "gym_location": "Alliance Training Center East -Santee",
        "fighters": "Dominick Cruz (Bantamweight - 13)"
      },
      "geometry": {
        "type": "Point",
        "coordinates": [
          -116.962258,
          32.847002
        ]
      }
    },
    {
      "type": "Feature",
      "properties": {
        "gym_location": "Pura Vida BJJ & MMA",
        "fighters": "Montel Jackson (Bantamweight - 15)"
      },
      "geometry": {
        "type": "Point",
        "coordinates": [
          -87.90633845,
          43.09210279
        ]
      }
    },
    {
      "type": "Feature",
      "properties": {
        "gym_location": "Brazilian Jiu-Jitsu",
        "fighters": "Ilia Topuria (Featherweight - Champion)<br>Sean Brady (Welterweight - 8)"
      },
      "geometry": {
        "type": "Point",
        "coordinates": [
          -75.125668,
          40.096742
        ]
      }
    },
    {
      "type": "Feature",
      "properties": {
        "gym_location": "Freestyle Fighting Gym",
        "fighters": "Alexander Volkanovski (Featherweight - 1)"
      },
      "geometry": {
        "type": "Point",
        "coordinates": [
          158.2470669,
          -31.43803723
        ]
      }
    },
    {
      "type": "Feature",
      "properties": {
        "gym_location": "Hawaii Elite MMA - Hawaii",
        "fighters": "Max Holloway (Featherweight - 2)<br>Max Holloway (Lightweight - 9)"
      },
      "geometry": {
        "type": "Point",
        "coordinates": [
          -155.860178,
          19.951097
        ]
      }
    },
    {
      "type": "Feature",
      "properties": {
        "gym_location": "Team Ortega",
        "fighters": "Brian Ortega (Featherweight - 3)"
      },
      "geometry": {
        "type": "Point",
        "coordinates": [
          1.0,
          1.0
        ]
      }
    },
    {
      "type": "Feature",
      "properties": {
        "gym_location": "Izzystyle wrestling & VFS Chicago",
        "fighters": "Yair Rodriguez (Featherweight - 4)"
      },
      "geometry": {
        "type": "Point",
        "coordinates": [
          -58.061008,
          -34.86904
        ]
      }
    },
    {
      "type": "Feature",
      "properties": {
        "gym_location": "Team Alpha Male  (Urijah Faber's Ultimate Fitness)",
        "fighters": "Josh Emmett (Featherweight - 7)"
      },
      "geometry": {
        "type": "Point",
        "coordinates": [
          34.1578606,
          0.9174313
        ]
      }
    },
    {
      "type": "Feature",
      "properties": {
        "gym_location": "Serra-Longo - Long Island, NY",
        "fighters": "Aljamain Sterling (Featherweight - 8)"
      },
      "geometry": {
        "type": "Point",
        "coordinates": [
          -73.253616,
          40.805805
        ]
      }
    },
    {
      "type": "Feature",
      "properties": {
        "gym_location": "New England MMA",
        "fighters": "Calvin Kattar (Featherweight - 9)"
      },
      "geometry": {
        "type": "Point",
        "coordinates": [
          -2.265102,
          53.367321
        ]
      }
    },
    {
      "type": "Feature",
      "properties": {
        "gym_location": "Kings MMA",
        "fighters": "Giga Chikadze (Featherweight - 10)"
      },
      "geometry": {
        "type": "Point",
        "coordinates": [
          -117.999588,
          33.7161
        ]
      }
    },
    {
      "type": "Feature",
      "properties": {
        "gym_location": "All Powers Gym",
        "fighters": "Lerone Murphy (Featherweight - 11)"
      },
      "geometry": {
        "type": "Point",
        "coordinates": [
          -112.45047,
          42.908025
        ]
      }
    },
    {
      "type": "Feature",
      "properties": {
        "gym_location": "Ricardo Almeida / Valor MMA",
        "fighters": "Edson Barboza (Featherweight - 15)"
      },
      "geometry": {
        "type": "Point",
        "coordinates": [
          -46.668756,
          -23.562981
        ]
      }
    },
    {
      "type": "Feature",
      "properties": {
        "gym_location": "AKA (American Kickboxing Academy) San Jose",
        "fighters": "Islam Makhachev (Lightweight - Champion)"
      },
      "geometry": {
        "type": "Point",
        "coordinates": [
          -121.917046,
          37.264671
        ]
      }
    },
    {
      "type": "Feature",
      "properties": {
        "gym_location": "Syndicate MMA - Las Vegas, NV",
        "fighters": "Arman Tsarukyan (Lightweight - 1)<br>Khalil Rountree Jr. (Light Heavyweight - 8)"
      },
      "geometry": {
        "type": "Point",
        "coordinates": [
          -115.244765,
          36.057018
        ]
      }
    },
    {
      "type": "Feature",
      "properties": {
        "gym_location": "Bronx's Gold Team",
        "fighters": "Charles Oliveira (Lightweight - 2)"
      },
      "geometry": {
        "type": "Point",
        "coordinates": [
          -74.202789,
          40.711273
        ]
      }
    },
    {
      "type": "Feature",
      "properties": {
        "gym_location": "Genesis Training Center",
        "fighters": "Justin Gaethje (Lightweight - 3)"
      },
      "geometry": {
        "type": "Point",
        "coordinates": [
          -84.401413,
          35.497055
        ]
      }
    },
    {
      "type": "Feature",
      "properties": {
        "gym_location": "American Top Team ATT Coconut Creek, FL",
        "fighters": "Dustin Poirier (Lightweight - 4)"
      },
      "geometry": {
        "type": "Point",
        "coordinates": [
          -80.202009,
          26.297208
        ]
      }
    },
    {
      "type": "Feature",
      "properties": {
        "gym_location": "Sanford MMA",
        "fighters": "Michael Chandler (Lightweight - 6)"
      },
      "geometry": {
        "type": "Point",
        "coordinates": [
          -81.320173,
          28.811337
        ]
      }
    },
    {
      "type": "Feature",
      "properties": {
        "gym_location": "Kings MMA - Huntington Beach, CA",
        "fighters": "Beneil Dariush (Lightweight - 7)<br>Rafael Dos Anjos (Lightweight - 14)<br>Marvin Vettori (Middleweight - 6)"
      },
      "geometry": {
        "type": "Point",
        "coordinates": [
          -117.999588,
          33.7161
        ]
      }
    },
    {
      "type": "Feature",
      "properties": {
        "gym_location": "Tiger Muay Thai - Phuket, Thailand",
        "fighters": "Rafael Fiziev (Lightweight - 8)<br>Valentina Shevchenko (Women's Pound-for-Pound Top Rank - 3)<br>Valentina Shevchenko (Women's Flyweight - 1)"
      },
      "geometry": {
        "type": "Point",
        "coordinates": [
          98.39086,
          7.882835
        ]
      }
    },
    {
      "type": "Feature",
      "properties": {
        "gym_location": "Saigon Sports Club- Vietnam",
        "fighters": "Dan Hooker (Lightweight - 11)"
      },
      "geometry": {
        "type": "Point",
        "coordinates": [
          106.728993,
          10.739537
        ]
      }
    },
    {
      "type": "Feature",
      "properties": {
        "gym_location": "Venum Training Camp Paris",
        "fighters": "Beno\u00eet Saint Denis (Lightweight - 12)<br>Nassourdine Imavov (Middleweight - 4)"
      },
      "geometry": {
        "type": "Point",
        "coordinates": [
          2.3483915,
          48.8534951
        ]
      }
    },
    {
      "type": "Feature",
      "properties": {
        "gym_location": "NEXT Generation MMA",
        "fighters": "Paddy Pimblett (Lightweight - 15)"
      },
      "geometry": {
        "type": "Point",
        "coordinates": [
          174.773006,
          -36.853851
        ]
      }
    },
    {
      "type": "Feature",
      "properties": {
        "gym_location": "Roufusport, (Mikwaukee, WI) & Chicago Fight Team (Chicago, IL)",
        "fighters": "Belal Muhammad (Welterweight - Champion)"
      },
      "geometry": {
        "type": "Point",
        "coordinates": [
          -88.2049,
          41.884636
        ]
      }
    },
    {
      "type": "Feature",
      "properties": {
        "gym_location": "UTC Ultimate Training Centre Birmingham",
        "fighters": "Leon Edwards (Welterweight - 1)"
      },
      "geometry": {
        "type": "Point",
        "coordinates": [
          -73.973942,
          40.760587
        ]
      }
    },
    {
      "type": "Feature",
      "properties": {
        "gym_location": "Blackzilians - Boca Raton, FL",
        "fighters": "Kamaru Usman (Welterweight - 2)<br>Vicente Luque (Welterweight - 13)"
      },
      "geometry": {
        "type": "Point",
        "coordinates": [
          -80.102879,
          26.3709205
        ]
      }
    },
    {
      "type": "Feature",
      "properties": {
        "gym_location": "Kill Cliff FC",
        "fighters": "Shavkat Rakhmonov (Welterweight - 3)<br>Brendan Allen (Middleweight - 7)"
      },
      "geometry": {
        "type": "Point",
        "coordinates": [
          -73.030244,
          -36.927555
        ]
      }
    },
    {
      "type": "Feature",
      "properties": {
        "gym_location": "MMA Masters - Miami, FL",
        "fighters": "Colby Covington (Welterweight - 4)"
      },
      "geometry": {
        "type": "Point",
        "coordinates": [
          -80.194434,
          25.790915
        ]
      }
    },
    {
      "type": "Feature",
      "properties": {
        "gym_location": "Jaco Hybrid Training Center",
        "fighters": "Gilbert Burns (Welterweight - 6)"
      },
      "geometry": {
        "type": "Point",
        "coordinates": [
          139.774374,
          35.704535
        ]
      }
    },
    {
      "type": "Feature",
      "properties": {
        "gym_location": "Upstate Karate Family Martial Arts Center",
        "fighters": "Stephen Thompson (Welterweight - 9)"
      },
      "geometry": {
        "type": "Point",
        "coordinates": [
          -71.774926,
          42.565902
        ]
      }
    },
    {
      "type": "Feature",
      "properties": {
        "gym_location": "Fortis MMA",
        "fighters": "Geoff Neal (Welterweight - 10)<br>Macy Chiasson (Women's Bantamweight - 5)"
      },
      "geometry": {
        "type": "Point",
        "coordinates": [
          25.609612,
          -25.837608
        ]
      }
    },
    {
      "type": "Feature",
      "properties": {
        "gym_location": "Elevation Fight Team - Denver, CO",
        "fighters": "Neil Magny (Welterweight - 12)"
      },
      "geometry": {
        "type": "Point",
        "coordinates": [
          -104.98613,
          39.74001
        ]
      }
    },
    {
      "type": "Feature",
      "properties": {
        "gym_location": "75",
        "fighters": "Michael Page (Welterweight - 14)"
      },
      "geometry": {
        "type": "Point",
        "coordinates": [
          -70.612449,
          -33.423581
        ]
      }
    },
    {
      "type": "Feature",
      "properties": {
        "gym_location": "Kung Fu",
        "fighters": "Kevin Holland (Welterweight - 15)"
      },
      "geometry": {
        "type": "Point",
        "coordinates": [
          -73.825741,
          40.74338
        ]
      }
    },
    {
      "type": "Feature",
      "properties": {
        "gym_location": "Millennia MMA, Rancho, CA",
        "fighters": "Sean Strickland (Middleweight - 1)"
      },
      "geometry": {
        "type": "Point",
        "coordinates": [
          -117.545213,
          34.100554
        ]
      }
    },
    {
      "type": "Feature",
      "properties": {
        "gym_location": "PMA, Padstow NSW, Australia",
        "fighters": "Robert Whittaker (Middleweight - 3)"
      },
      "geometry": {
        "type": "Point",
        "coordinates": [
          151.029661,
          -33.948677
        ]
      }
    },
    {
      "type": "Feature",
      "properties": {
        "gym_location": "ABJJ + Gracie Barra Alaska",
        "fighters": "Jared Cannonier (Middleweight - 5)"
      },
      "geometry": {
        "type": "Point",
        "coordinates": [
          -153.1809967,
          64.63586757
        ]
      }
    },
    {
      "type": "Feature",
      "properties": {
        "gym_location": "Team Borracha",
        "fighters": "Paulo Costa (Middleweight - 8)"
      },
      "geometry": {
        "type": "Point",
        "coordinates": [
          -38.490519,
          -13.011668
        ]
      }
    },
    {
      "type": "Feature",
      "properties": {
        "gym_location": "Frontline Academy - Oslo",
        "fighters": "Jack Hermansson (Middleweight - 9)"
      },
      "geometry": {
        "type": "Point",
        "coordinates": [
          -93.71859,
          32.4131
        ]
      }
    },
    {
      "type": "Feature",
      "properties": {
        "gym_location": "74",
        "fighters": "Khamzat Chimaev (Middleweight - 11)"
      },
      "geometry": {
        "type": "Point",
        "coordinates": [
          100.276836,
          13.548154
        ]
      }
    },
    {
      "type": "Feature",
      "properties": {
        "gym_location": "Combat Club",
        "fighters": "Caio Borralho (Middleweight - 12)"
      },
      "geometry": {
        "type": "Point",
        "coordinates": [
          -46.659576,
          -23.530178
        ]
      }
    },
    {
      "type": "Feature",
      "properties": {
        "gym_location": "Overcome Academy",
        "fighters": "Michel Pereira (Middleweight - 13)"
      },
      "geometry": {
        "type": "Point",
        "coordinates": [
          -75.1714785,
          39.956826
        ]
      }
    },
    {
      "type": "Feature",
      "properties": {
        "gym_location": "Striker",
        "fighters": "Anthony Hernandez (Middleweight - 14)<br>Iasmin Lucindo (Women's Strawweight - 14)<br>Irene Aldana (Women's Bantamweight - 4)<br>Mayra Bueno Silva (Women's Bantamweight - 6)"
      },
      "geometry": {
        "type": "Point",
        "coordinates": [
          -68.395309,
          18.662557
        ]
      }
    },
    {
      "type": "Feature",
      "properties": {
        "gym_location": "Teixeira MMA & Fitness-Bethel, CT",
        "fighters": "Alex Pereira (Light Heavyweight - Champion)<br>Dominick Reyes (Light Heavyweight - 13)"
      },
      "geometry": {
        "type": "Point",
        "coordinates": [
          -73.390839,
          41.416772
        ]
      }
    },
    {
      "type": "Feature",
      "properties": {
        "gym_location": "JETSAAM GYM",
        "fighters": "Ji\u0159\u00ed Proch\u00e1zka (Light Heavyweight - 1)"
      },
      "geometry": {
        "type": "Point",
        "coordinates": [
          29.074235,
          40.965341
        ]
      }
    },
    {
      "type": "Feature",
      "properties": {
        "gym_location": "American Top Team Zagreb",
        "fighters": "Aleksandar Raki\u0107 (Light Heavyweight - 5)"
      },
      "geometry": {
        "type": "Point",
        "coordinates": [
          -80.202009,
          26.297208
        ]
      }
    },
    {
      "type": "Feature",
      "properties": {
        "gym_location": "Karate",
        "fighters": "Nikita Krylov (Light Heavyweight - 6)<br>Manon Fiorot (Women's Pound-for-Pound Top Rank - 4)<br>Manon Fiorot (Women's Flyweight - 2)"
      },
      "geometry": {
        "type": "Point",
        "coordinates": [
          36.24992,
          37.297172
        ]
      }
    },
    {
      "type": "Feature",
      "properties": {
        "gym_location": "Allstars Training Center",
        "fighters": "Volkan Oezdemir (Light Heavyweight - 7)"
      },
      "geometry": {
        "type": "Point",
        "coordinates": [
          18.048948,
          59.34866
        ]
      }
    },
    {
      "type": "Feature",
      "properties": {
        "gym_location": "SBG Ireland",
        "fighters": "Johnny Walker (Light Heavyweight - 9)"
      },
      "geometry": {
        "type": "Point",
        "coordinates": [
          -8.8148025,
          53.9122935
        ]
      }
    },
    {
      "type": "Feature",
      "properties": {
        "gym_location": "Mick Doyle's Kickboxing - Omaha, NE",
        "fighters": "Anthony Smith (Light Heavyweight - 11)"
      },
      "geometry": {
        "type": "Point",
        "coordinates": [
          -95.934525,
          41.257595
        ]
      }
    },
    {
      "type": "Feature",
      "properties": {
        "gym_location": "35",
        "fighters": "Jon Jones (Heavyweight - Champion)"
      },
      "geometry": {
        "type": "Point",
        "coordinates": [
          -87.568225,
          33.209826
        ]
      }
    },
    {
      "type": "Feature",
      "properties": {
        "gym_location": "Team Kaobon",
        "fighters": "Tom Aspinall (Heavyweight - 1)"
      },
      "geometry": {
        "type": "Point",
        "coordinates": [
          -99.161754,
          19.386111
        ]
      }
    },
    {
      "type": "Feature",
      "properties": {
        "gym_location": "MMA Factory - Paris, France",
        "fighters": "Ciryl Gane (Heavyweight - 2)"
      },
      "geometry": {
        "type": "Point",
        "coordinates": [
          2.283102,
          48.868455
        ]
      }
    },
    {
      "type": "Feature",
      "properties": {
        "gym_location": "Global Fight Gym",
        "fighters": "Alexander Volkov (Heavyweight - 3)"
      },
      "geometry": {
        "type": "Point",
        "coordinates": [
          -1.181197,
          50.645261
        ]
      }
    },
    {
      "type": "Feature",
      "properties": {
        "gym_location": "Dutch Style MMA/ UFC Gym Lombard IL",
        "fighters": "Curtis Blaydes (Heavyweight - 5)"
      },
      "geometry": {
        "type": "Point",
        "coordinates": [
          -88.01974,
          41.886932
        ]
      }
    },
    {
      "type": "Feature",
      "properties": {
        "gym_location": "Strongstyle Fight Team",
        "fighters": "Stipe Miocic (Heavyweight - 6)"
      },
      "geometry": {
        "type": "Point",
        "coordinates": [
          -1.17521,
          50.836905
        ]
      }
    },
    {
      "type": "Feature",
      "properties": {
        "gym_location": "S4 Warszawa",
        "fighters": "Marcin Tybura (Heavyweight - 8)"
      },
      "geometry": {
        "type": "Point",
        "coordinates": [
          21.116658,
          51.016884
        ]
      }
    },
    {
      "type": "Feature",
      "properties": {
        "gym_location": "Polar Bear Team",
        "fighters": "Serghei Spivac (Heavyweight - 9)"
      },
      "geometry": {
        "type": "Point",
        "coordinates": [
          -83.985191,
          34.144025
        ]
      }
    },
    {
      "type": "Feature",
      "properties": {
        "gym_location": "Team Tuivasa",
        "fighters": "Tai Tuivasa (Heavyweight - 10)"
      },
      "geometry": {
        "type": "Point",
        "coordinates": [
          -99.161754,
          19.386111
        ]
      }
    },
    {
      "type": "Feature",
      "properties": {
        "gym_location": "4oz Fight Club",
        "fighters": "Derrick Lewis (Heavyweight - 11)"
      },
      "geometry": {
        "type": "Point",
        "coordinates": [
          8.715549,
          44.416004
        ]
      }
    },
    {
      "type": "Feature",
      "properties": {
        "gym_location": "Wrestler",
        "fighters": "Alexandr Romanov (Heavyweight - 13)"
      },
      "geometry": {
        "type": "Point",
        "coordinates": [
          -0.217313,
          51.770255
        ]
      }
    },
    {
      "type": "Feature",
      "properties": {
        "gym_location": "011 MMA TEAM",
        "fighters": "Marcos Rogerio de Lima (Heavyweight - 14)"
      },
      "geometry": {
        "type": "Point",
        "coordinates": [
          -46.642291,
          -23.572591
        ]
      }
    },
    {
      "type": "Feature",
      "properties": {
        "gym_location": "Lobo Gym MMA",
        "fighters": "Alexa Grasso (Women's Pound-for-Pound Top Rank - Champion)<br>Alexa Grasso (Women's Pound-for-Pound Top Rank - 1)<br>Alexa Grasso (Women's Flyweight - Champion)"
      },
      "geometry": {
        "type": "Point",
        "coordinates": [
          -104.968357,
          39.730742
        ]
      }
    },
    {
      "type": "Feature",
      "properties": {
        "gym_location": "Muay Thai",
        "fighters": "Zhang Weili (Women's Pound-for-Pound Top Rank - 2)<br>Zhang Weili (Women's Strawweight - Champion)<br>Marina Rodriguez (Women's Strawweight - 6)<br>Angela Hill (Women's Strawweight - 9)<br>Karol Rosa (Women's Bantamweight - 8)"
      },
      "geometry": {
        "type": "Point",
        "coordinates": [
          98.813206,
          8.046092
        ]
      }
    },
    {
      "type": "Feature",
      "properties": {
        "gym_location": "Sik-Jitsu Spokane, WA",
        "fighters": "Julianna Pe\u00f1a (Women's Pound-for-Pound Top Rank - 5)<br>Julianna Pe\u00f1a (Women's Bantamweight - 1)"
      },
      "geometry": {
        "type": "Point",
        "coordinates": [
          -117.42208,
          47.65903
        ]
      }
    },
    {
      "type": "Feature",
      "properties": {
        "gym_location": "Colorado Springs BJJ",
        "fighters": "Raquel Pennington (Women's Pound-for-Pound Top Rank - 6)<br>Raquel Pennington (Women's Bantamweight - Champion)"
      },
      "geometry": {
        "type": "Point",
        "coordinates": [
          -105.940268,
          39.60683
        ]
      }
    },
    {
      "type": "Feature",
      "properties": {
        "gym_location": "Grudge Training Center",
        "fighters": "Rose Namajunas (Women's Pound-for-Pound Top Rank - 7)<br>Rose Namajunas (Women's Flyweight - 5)"
      },
      "geometry": {
        "type": "Point",
        "coordinates": [
          -105.109354,
          39.776285
        ]
      }
    },
    {
      "type": "Feature",
      "properties": {
        "gym_location": "Millennia MMA - Rancho Cucamonga, CA",
        "fighters": "Tatiana Suarez (Women's Pound-for-Pound Top Rank - 9)<br>Tatiana Suarez (Women's Strawweight - 1)"
      },
      "geometry": {
        "type": "Point",
        "coordinates": [
          -117.545213,
          34.100554
        ]
      }
    },
    {
      "type": "Feature",
      "properties": {
        "gym_location": "China Top Team Beijing",
        "fighters": "Yan Xiaonan (Women's Pound-for-Pound Top Rank - 10)<br>Yan Xiaonan (Women's Strawweight - 2)"
      },
      "geometry": {
        "type": "Point",
        "coordinates": [
          116.3912757,
          39.906217
        ]
      }
    },
    {
      "type": "Feature",
      "properties": {
        "gym_location": "PRVT Para Vale Tudo",
        "fighters": "J\u00e9ssica Andrade (Women's Pound-for-Pound Top Rank - 11)<br>J\u00e9ssica Andrade (Women's Strawweight - 4)<br>J\u00e9ssica Andrade (Women's Flyweight - 6)"
      },
      "geometry": {
        "type": "Point",
        "coordinates": [
          -53.1382861,
          -4.046127836
        ]
      }
    },
    {
      "type": "Feature",
      "properties": {
        "gym_location": "Judo",
        "fighters": "Kayla Harrison (Women's Pound-for-Pound Top Rank - 12)<br>Ketlen Vieira (Women's Pound-for-Pound Top Rank - 14)<br>Amanda Ribas (Women's Strawweight - 8)<br>Tabatha Ricci (Women's Strawweight - 11)<br>Luana Pinheiro (Women's Strawweight - 12)<br>Amanda Ribas (Women's Flyweight - 9)<br>Ketlen Vieira (Women's Bantamweight - 2)<br>Kayla Harrison (Women's Bantamweight - 3)"
      },
      "geometry": {
        "type": "Point",
        "coordinates": [
          -122.260694,
          37.82098
        ]
      }
    },
    {
      "type": "Feature",
      "properties": {
        "gym_location": "Marajo Brothers",
        "fighters": "Amanda Lemos (Women's Pound-for-Pound Top Rank - 15)<br>Amanda Lemos (Women's Strawweight - 5)"
      },
      "geometry": {
        "type": "Point",
        "coordinates": [
          -9.547788,
          30.40204
        ]
      }
    },
    {
      "type": "Feature",
      "properties": {
        "gym_location": "Megaton Dias BJJ",
        "fighters": "Mackenzie Dern (Women's Strawweight - 7)"
      },
      "geometry": {
        "type": "Point",
        "coordinates": [
          28.825935,
          40.21764
        ]
      }
    },
    {
      "type": "Feature",
      "properties": {
        "gym_location": "30",
        "fighters": "Loopy Godinez (Women's Strawweight - 10)"
      },
      "geometry": {
        "type": "Point",
        "coordinates": [
          -69.321993,
          10.077764
        ]
      }
    },
    {
      "type": "Feature",
      "properties": {
        "gym_location": "Gracie Barra Lodz",
        "fighters": "Karolina Kowalkiewicz (Women's Strawweight - 15)"
      },
      "geometry": {
        "type": "Point",
        "coordinates": [
          19.661135,
          52.238667
        ]
      }
    },
    {
      "type": "Feature",
      "properties": {
        "gym_location": "Renzo Gracie Academy",
        "fighters": "Katlyn Cerminara (Women's Flyweight - 7)"
      },
      "geometry": {
        "type": "Point",
        "coordinates": [
          -73.993678,
          40.748975
        ]
      }
    },
    {
      "type": "Feature",
      "properties": {
        "gym_location": "Taekwondo",
        "fighters": "Natalia Silva (Women's Flyweight - 8)"
      },
      "geometry": {
        "type": "Point",
        "coordinates": [
          -46.623031,
          -23.504627
        ]
      }
    },
    {
      "type": "Feature",
      "properties": {
        "gym_location": "Gile Ribeiro - Curitiba, Brazil",
        "fighters": "Karine Silva (Women's Flyweight - 11)"
      },
      "geometry": {
        "type": "Point",
        "coordinates": [
          -48.31669,
          -5.748406
        ]
      }
    },
    {
      "type": "Feature",
      "properties": {
        "gym_location": "Niagara Top Team",
        "fighters": "Jasmine Jasudavicius (Women's Flyweight - 14)"
      },
      "geometry": {
        "type": "Point",
        "coordinates": [
          -79.386412,
          43.669629
        ]
      }
    },
    {
      "type": "Feature",
      "properties": {
        "gym_location": "Joel Diaz Boxing",
        "fighters": "Holly Holm (Women's Bantamweight - 7)"
      },
      "geometry": {
        "type": "Point",
        "coordinates": [
          -98.13104,
          19.428492
        ]
      }
    },
    {
      "type": "Feature",
      "properties": {
        "gym_location": "33",
        "fighters": "Norma Dumont (Women's Bantamweight - 10)"
      },
      "geometry": {
        "type": "Point",
        "coordinates": [
          -80.131015,
          25.784059
        ]
      }
    },
    {
      "type": "Feature",
      "properties": {
        "gym_location": "36",
        "fighters": "Julia Avila (Women's Bantamweight - 13)"
      },
      "geometry": {
        "type": "Point",
        "coordinates": [
          103.592364,
          -1.617179
        ]
      }
    },
    {
      "type": "Feature",
      "properties": {
        "gym_location": "Team Germaine- csa Holland",
        "fighters": "Germaine de Randamie (Women's Bantamweight - 15)"
      },
      "geometry": {
        "type": "Point",
        "coordinates": [
          4.412035,
          51.939472
        ]
      }
    }
  ]
}