{
  "type": "FeatureCollection",
  "features": [
    {
      "type": "Feature",
      "properties": {
        "gym_location": "American Top Team",
        "fighters": "<strong>Fighters:</strong><br>Alexandre Pantoja (Flyweight - Champion)<br>Cody Durden (Flyweight - 15)<br>Dustin Poirier (Lightweight - 4)<br>Mateusz Gamrot (Lightweight - 5)<br>Renato Moicano (Lightweight - 10)<br>Aleksandar Raki\u0107 (Light Heavyweight - 5)<br>Bogdan Guskov (Light Heavyweight - 12)<br>Jairzinho Rozenstruik (Heavyweight - 12)<br>Rodrigo Nascimento (Heavyweight - 15)<br>Amanda Ribas (Women's Strawweight - 8)<br>Amanda Ribas (Women's Flyweight - 9)<br>Ariane da Silva (Women's Flyweight - 13)<br>Kayla Harrison (Women's Bantamweight - 3)<br>Mayra Bueno Silva (Women's Bantamweight - 6)<br>Yana Santos (Women's Bantamweight - 12)",
        "number_of_fighters": 15
      },
      "geometry": {
        "type": "Point",
        "coordinates": [
          -80.21597394,
          26.72796852
        ]
      }
    },
    {
      "type": "Feature",
      "properties": {
        "gym_location": "Factory X",
        "fighters": "<strong>Fighters:</strong><br>Brandon Royval (Flyweight - 1)<br>Jonathan Martinez (Bantamweight - 14)",
        "number_of_fighters": 2
      },
      "geometry": {
        "type": "Point",
        "coordinates": [
          -105.011848,
          39.63047099
        ]
      }
    },
    {
      "type": "Feature",
      "properties": {
        "gym_location": "Fortis MMA",
        "fighters": "<strong>Fighters:</strong><br>Brandon Moreno (Flyweight - 2)<br>Geoff Neal (Welterweight - 10)<br>Macy Chiasson (Women's Bantamweight - 5)",
        "number_of_fighters": 3
      },
      "geometry": {
        "type": "Point",
        "coordinates": [
          -96.78554577,
          32.78733641
        ]
      }
    },
    {
      "type": "Feature",
      "properties": {
        "gym_location": "Xtreme Couture",
        "fighters": "<strong>Fighters:</strong><br>Amir Albazi (Flyweight - 3)<br>Manel Kape (Flyweight - 9)<br>Dan Ige (Featherweight - 14)<br>Sean Strickland (Middleweight - 1)<br>Roman Dolidze (Middleweight - 10)<br>Michel Pereira (Middleweight - 13)<br>Chris Curtis (Middleweight - 15)<br>Magomed Ankalaev (Light Heavyweight - 2)<br>Casey O'Neill (Women's Flyweight - 15)<br>Miesha Tate (Women's Bantamweight - 9)",
        "number_of_fighters": 10
      },
      "geometry": {
        "type": "Point",
        "coordinates": [
          -115.323575,
          36.226171
        ]
      }
    },
    {
      "type": "Feature",
      "properties": {
        "gym_location": "City Kickboxing",
        "fighters": "<strong>Fighters:</strong><br>Kai Kara-France (Flyweight - 4)<br>Dan Hooker (Lightweight - 11)<br>Israel Adesanya (Middleweight - 2)<br>Carlos Ulberg (Light Heavyweight - 10)",
        "number_of_fighters": 4
      },
      "geometry": {
        "type": "Point",
        "coordinates": [
          174.75294,
          -36.865604
        ]
      }
    },
    {
      "type": "Feature",
      "properties": {
        "gym_location": "The Paraestra Okinawa",
        "fighters": "<strong>Fighters:</strong><br>Tatsuro Taira (Flyweight - 5)",
        "number_of_fighters": 1
      },
      "geometry": {
        "type": "Point",
        "coordinates": [
          127.693132,
          26.20185561
        ]
      }
    },
    {
      "type": "Feature",
      "properties": {
        "gym_location": "Syndicate MMA",
        "fighters": "<strong>Fighters:</strong><br>Alex Perez (Flyweight - 6)<br>Arman Tsarukyan (Lightweight - 1)<br>Khalil Rountree Jr. (Light Heavyweight - 8)<br>Norma Dumont (Women's Bantamweight - 10)",
        "number_of_fighters": 4
      },
      "geometry": {
        "type": "Point",
        "coordinates": [
          -115.245147,
          36.056956
        ]
      }
    },
    {
      "type": "Feature",
      "properties": {
        "gym_location": "Wilkes MMA",
        "fighters": "<strong>Fighters:</strong><br>Steve Erceg (Flyweight - 7)",
        "number_of_fighters": 1
      },
      "geometry": {
        "type": "Point",
        "coordinates": [
          115.8230376,
          -32.04228127
        ]
      }
    },
    {
      "type": "Feature",
      "properties": {
        "gym_location": "Nova Uniao",
        "fighters": "<strong>Fighters:</strong><br>Matheus Nicolau (Flyweight - 8)<br>Jos\u00e9 Aldo (Bantamweight - 8)<br>Luana Pinheiro (Women's Strawweight - 12)<br>Ketlen Vieira (Women's Bantamweight - 2)",
        "number_of_fighters": 4
      },
      "geometry": {
        "type": "Point",
        "coordinates": [
          -43.57897,
          -22.8132069
        ]
      }
    },
    {
      "type": "Feature",
      "properties": {
        "gym_location": "Next Generation MMA",
        "fighters": "<strong>Fighters:</strong><br>Tim Elliott (Flyweight - 10)",
        "number_of_fighters": 1
      },
      "geometry": {
        "type": "Point",
        "coordinates": [
          -90.39557513,
          36.75332584
        ]
      }
    },
    {
      "type": "Feature",
      "properties": {
        "gym_location": "American Kickboxing Academy",
        "fighters": "<strong>Fighters:</strong><br>Matt Schnell (Flyweight - 11)<br>Islam Makhachev (Lightweight - Champion)",
        "number_of_fighters": 2
      },
      "geometry": {
        "type": "Point",
        "coordinates": [
          -121.917046,
          37.264671
        ]
      }
    },
    {
      "type": "Feature",
      "properties": {
        "gym_location": "Eagles MMA",
        "fighters": "<strong>Fighters:</strong><br>Tagir Ulanbekov (Flyweight - 12)<br>Umar Nurmagomedov (Bantamweight - 10)<br>Sergei Pavlovich (Heavyweight - 4)",
        "number_of_fighters": 3
      },
      "geometry": {
        "type": "Point",
        "coordinates": [
          37.45371394,
          55.72600052
        ]
      }
    },
    {
      "type": "Feature",
      "properties": {
        "gym_location": "Evolucao Thai",
        "fighters": "<strong>Fighters:</strong><br>Bruno Silva (Flyweight - 13)",
        "number_of_fighters": 1
      },
      "geometry": {
        "type": "Point",
        "coordinates": [
          -49.20627147,
          -25.35408863
        ]
      }
    },
    {
      "type": "Feature",
      "properties": {
        "gym_location": "DAR Team",
        "fighters": "<strong>Fighters:</strong><br>Asu Almabayev (Flyweight - 14)",
        "number_of_fighters": 1
      },
      "geometry": {
        "type": "Point",
        "coordinates": [
          76.85695919,
          43.20671583
        ]
      }
    },
    {
      "type": "Feature",
      "properties": {
        "gym_location": "The MMA Lab",
        "fighters": "<strong>Fighters:</strong><br>Sean O'Malley (Bantamweight - Champion)<br>Kyler Phillips (Bantamweight - 11)<br>Mario Bautista (Bantamweight - 12)",
        "number_of_fighters": 3
      },
      "geometry": {
        "type": "Point",
        "coordinates": [
          -112.1172716,
          33.64263601
        ]
      }
    },
    {
      "type": "Feature",
      "properties": {
        "gym_location": "Serra-Longo MMA",
        "fighters": "<strong>Fighters:</strong><br>Merab Dvalishvili (Bantamweight - 1)<br>Aljamain Sterling (Featherweight - 8)",
        "number_of_fighters": 2
      },
      "geometry": {
        "type": "Point",
        "coordinates": [
          -73.253616,
          40.805805
        ]
      }
    },
    {
      "type": "Feature",
      "properties": {
        "gym_location": "Elevation Fight Team",
        "fighters": "<strong>Fighters:</strong><br>Cory Sandhagen (Bantamweight - 2)<br>Neil Magny (Welterweight - 12)<br>Curtis Blaydes (Heavyweight - 5)",
        "number_of_fighters": 3
      },
      "geometry": {
        "type": "Point",
        "coordinates": [
          -104.8644463,
          39.66549815
        ]
      }
    },
    {
      "type": "Feature",
      "properties": {
        "gym_location": "Tiger Muay Thai",
        "fighters": "<strong>Fighters:</strong><br>Petr Yan (Bantamweight - 3)<br>Rafael Fiziev (Lightweight - 8)<br>Valentina Shevchenko (Women's Flyweight - 1)",
        "number_of_fighters": 3
      },
      "geometry": {
        "type": "Point",
        "coordinates": [
          98.39086,
          7.882835
        ]
      }
    },
    {
      "type": "Feature",
      "properties": {
        "gym_location": "RVCA Training Center",
        "fighters": "<strong>Fighters:</strong><br>Marlon Vera (Bantamweight - 4)<br>Jalin Turner (Lightweight - 13)",
        "number_of_fighters": 2
      },
      "geometry": {
        "type": "Point",
        "coordinates": [
          -117.9382086,
          33.63290011
        ]
      }
    },
    {
      "type": "Feature",
      "properties": {
        "gym_location": "Fight Ready",
        "fighters": "<strong>Fighters:</strong><br>Henry Cejudo (Bantamweight - 5)",
        "number_of_fighters": 1
      },
      "geometry": {
        "type": "Point",
        "coordinates": [
          -111.92618,
          33.496822
        ]
      }
    },
    {
      "type": "Feature",
      "properties": {
        "gym_location": "Chute Boxe",
        "fighters": "<strong>Fighters:</strong><br>Deiveson Figueiredo (Bantamweight - 6)<br>Charles Oliveira (Lightweight - 2)<br>Ian Machado Garry (Welterweight - 7)",
        "number_of_fighters": 3
      },
      "geometry": {
        "type": "Point",
        "coordinates": [
          -46.68615895,
          -23.60238306
        ]
      }
    },
    {
      "type": "Feature",
      "properties": {
        "gym_location": "Team Alpha Male",
        "fighters": "<strong>Fighters:</strong><br>Song Yadong (Bantamweight - 7)<br>Josh Emmett (Featherweight - 7)<br>Yan Xiaonan (Women's Strawweight - 2)<br>Maycee Barber (Women's Flyweight - 4)",
        "number_of_fighters": 4
      },
      "geometry": {
        "type": "Point",
        "coordinates": [
          -121.4255428,
          38.55326537
        ]
      }
    },
    {
      "type": "Feature",
      "properties": {
        "gym_location": "Sityodtong - Boston",
        "fighters": "<strong>Fighters:</strong><br>Rob Font (Bantamweight - 9)<br>Calvin Kattar (Featherweight - 9)",
        "number_of_fighters": 2
      },
      "geometry": {
        "type": "Point",
        "coordinates": [
          -71.0568,
          42.38768866
        ]
      }
    },
    {
      "type": "Feature",
      "properties": {
        "gym_location": "Alliance MMA",
        "fighters": "<strong>Fighters:</strong><br>Dominick Cruz (Bantamweight - 13)<br>Angela Hill (Women's Strawweight - 9)",
        "number_of_fighters": 2
      },
      "geometry": {
        "type": "Point",
        "coordinates": [
          -116.962258,
          32.847002
        ]
      }
    },
    {
      "type": "Feature",
      "properties": {
        "gym_location": "Pura Vida BJJ & MMA",
        "fighters": "<strong>Fighters:</strong><br>Montel Jackson (Bantamweight - 15)",
        "number_of_fighters": 1
      },
      "geometry": {
        "type": "Point",
        "coordinates": [
          -87.90633845,
          43.09210279
        ]
      }
    },
    {
      "type": "Feature",
      "properties": {
        "gym_location": "Climent Club",
        "fighters": "<strong>Fighters:</strong><br>Ilia Topuria (Featherweight - Champion)",
        "number_of_fighters": 1
      },
      "geometry": {
        "type": "Point",
        "coordinates": [
          -0.474362504,
          38.36410212
        ]
      }
    },
    {
      "type": "Feature",
      "properties": {
        "gym_location": "Freestyle MMA",
        "fighters": "<strong>Fighters:</strong><br>Alexander Volkanovski (Featherweight - 1)",
        "number_of_fighters": 1
      },
      "geometry": {
        "type": "Point",
        "coordinates": [
          150.8851348,
          -34.52983623
        ]
      }
    },
    {
      "type": "Feature",
      "properties": {
        "gym_location": "Hawaii Elite MMA",
        "fighters": "<strong>Fighters:</strong><br>Max Holloway (Featherweight - 2)<br>Max Holloway (Lightweight - 9)",
        "number_of_fighters": 2
      },
      "geometry": {
        "type": "Point",
        "coordinates": [
          -158.0007116,
          21.3999581
        ]
      }
    },
    {
      "type": "Feature",
      "properties": {
        "gym_location": "Huntington Beach Ultimate Training Center",
        "fighters": "<strong>Fighters:</strong><br>Brian Ortega (Featherweight - 3)",
        "number_of_fighters": 1
      },
      "geometry": {
        "type": "Point",
        "coordinates": [
          -117.9984101,
          33.70500555
        ]
      }
    },
    {
      "type": "Feature",
      "properties": {
        "gym_location": "Valle Flow Striking Academy",
        "fighters": "<strong>Fighters:</strong><br>Yair Rodriguez (Featherweight - 4)<br>Belal Muhammad (Welterweight - Champion)",
        "number_of_fighters": 2
      },
      "geometry": {
        "type": "Point",
        "coordinates": [
          -87.93916593,
          41.97064334
        ]
      }
    },
    {
      "type": "Feature",
      "properties": {
        "gym_location": "BKK Fighters",
        "fighters": "<strong>Fighters:</strong><br>Arnold Allen (Featherweight - 5)",
        "number_of_fighters": 1
      },
      "geometry": {
        "type": "Point",
        "coordinates": [
          0.928578759,
          51.88563525
        ]
      }
    },
    {
      "type": "Feature",
      "properties": {
        "gym_location": "Kings MMA",
        "fighters": "<strong>Fighters:</strong><br>Giga Chikadze (Featherweight - 10)<br>Beneil Dariush (Lightweight - 7)<br>Rafael Dos Anjos (Lightweight - 14)<br>Marvin Vettori (Middleweight - 6)",
        "number_of_fighters": 4
      },
      "geometry": {
        "type": "Point",
        "coordinates": [
          -117.999588,
          33.7161
        ]
      }
    },
    {
      "type": "Feature",
      "properties": {
        "gym_location": "All Powers Gym",
        "fighters": "<strong>Fighters:</strong><br>Lerone Murphy (Featherweight - 11)",
        "number_of_fighters": 1
      },
      "geometry": {
        "type": "Point",
        "coordinates": [
          -2.150892964,
          53.39571722
        ]
      }
    },
    {
      "type": "Feature",
      "properties": {
        "gym_location": "Lobo Gym MMA",
        "fighters": "<strong>Fighters:</strong><br>Diego Lopes (Featherweight - 12)<br>Loopy Godinez (Women's Strawweight - 10)<br>Alexa Grasso (Women's Flyweight - Champion)<br>Irene Aldana (Women's Bantamweight - 4)",
        "number_of_fighters": 4
      },
      "geometry": {
        "type": "Point",
        "coordinates": [
          -103.4527534,
          20.57232357
        ]
      }
    },
    {
      "type": "Feature",
      "properties": {
        "gym_location": "Barata MMA",
        "fighters": "<strong>Fighters:</strong><br>Bryce Mitchell (Featherweight - 13)",
        "number_of_fighters": 1
      },
      "geometry": {
        "type": "Point",
        "coordinates": [
          -91.72310397,
          35.25121474
        ]
      }
    },
    {
      "type": "Feature",
      "properties": {
        "gym_location": "Ricardo Almeida BJJ",
        "fighters": "<strong>Fighters:</strong><br>Edson Barboza (Featherweight - 15)",
        "number_of_fighters": 1
      },
      "geometry": {
        "type": "Point",
        "coordinates": [
          -74.6073244,
          40.2240597
        ]
      }
    },
    {
      "type": "Feature",
      "properties": {
        "gym_location": "Genesis Training Center",
        "fighters": "<strong>Fighters:</strong><br>Justin Gaethje (Lightweight - 3)<br>Kamaru Usman (Welterweight - 2)<br>Rose Namajunas (Women's Flyweight - 5)",
        "number_of_fighters": 3
      },
      "geometry": {
        "type": "Point",
        "coordinates": [
          -105.1410552,
          39.79167202
        ]
      }
    },
    {
      "type": "Feature",
      "properties": {
        "gym_location": "Sanford MMA",
        "fighters": "<strong>Fighters:</strong><br>Michael Chandler (Lightweight - 6)<br>Shavkat Rakhmonov (Welterweight - 3)<br>Gilbert Burns (Welterweight - 6)<br>Vicente Luque (Welterweight - 13)<br>Brendan Allen (Middleweight - 7)",
        "number_of_fighters": 5
      },
      "geometry": {
        "type": "Point",
        "coordinates": [
          -80.11193155,
          26.32257487
        ]
      }
    },
    {
      "type": "Feature",
      "properties": {
        "gym_location": "Venum Training Camp Paris",
        "fighters": "<strong>Fighters:</strong><br>Beno\u00eet Saint Denis (Lightweight - 12)<br>Nassourdine Imavov (Middleweight - 4)",
        "number_of_fighters": 2
      },
      "geometry": {
        "type": "Point",
        "coordinates": [
          2.359206637,
          48.74385346
        ]
      }
    },
    {
      "type": "Feature",
      "properties": {
        "gym_location": "NEXT Generation MMA",
        "fighters": "<strong>Fighters:</strong><br>Paddy Pimblett (Lightweight - 15)",
        "number_of_fighters": 1
      },
      "geometry": {
        "type": "Point",
        "coordinates": [
          -2.969278271,
          53.41079426
        ]
      }
    },
    {
      "type": "Feature",
      "properties": {
        "gym_location": "\tTeam Renegade",
        "fighters": "<strong>Fighters:</strong><br>Leon Edwards (Welterweight - 1)",
        "number_of_fighters": 1
      },
      "geometry": {
        "type": "Point",
        "coordinates": [
          -1.992423394,
          52.39588034
        ]
      }
    },
    {
      "type": "Feature",
      "properties": {
        "gym_location": "MMA Masters",
        "fighters": "<strong>Fighters:</strong><br>Colby Covington (Welterweight - 4)",
        "number_of_fighters": 1
      },
      "geometry": {
        "type": "Point",
        "coordinates": [
          -80.194434,
          25.790915
        ]
      }
    },
    {
      "type": "Feature",
      "properties": {
        "gym_location": "Scrappy MMA",
        "fighters": "<strong>Fighters:</strong><br>Jack Della Maddalena (Welterweight - 5)",
        "number_of_fighters": 1
      },
      "geometry": {
        "type": "Point",
        "coordinates": [
          115.88215,
          -32.0397391
        ]
      }
    },
    {
      "type": "Feature",
      "properties": {
        "gym_location": "Renzo Gracie Philly",
        "fighters": "<strong>Fighters:</strong><br>Sean Brady (Welterweight - 8)",
        "number_of_fighters": 1
      },
      "geometry": {
        "type": "Point",
        "coordinates": [
          -75.13115046,
          39.98535122
        ]
      }
    },
    {
      "type": "Feature",
      "properties": {
        "gym_location": "Upstate Karate Family Martial Arts Center",
        "fighters": "<strong>Fighters:</strong><br>Stephen Thompson (Welterweight - 9)",
        "number_of_fighters": 1
      },
      "geometry": {
        "type": "Point",
        "coordinates": [
          -82.27737718,
          34.74091383
        ]
      }
    },
    {
      "type": "Feature",
      "properties": {
        "gym_location": "Murcielago MMA",
        "fighters": "<strong>Fighters:</strong><br>Joaquin Buckley (Welterweight - 11)",
        "number_of_fighters": 1
      },
      "geometry": {
        "type": "Point",
        "coordinates": [
          -84.54569025,
          42.74688729
        ]
      }
    },
    {
      "type": "Feature",
      "properties": {
        "gym_location": "London Shootfighters",
        "fighters": "<strong>Fighters:</strong><br>Michael Page (Welterweight - 14)",
        "number_of_fighters": 1
      },
      "geometry": {
        "type": "Point",
        "coordinates": [
          -0.27327704,
          51.54491212
        ]
      }
    },
    {
      "type": "Feature",
      "properties": {
        "gym_location": "Travis Lutter BJJ",
        "fighters": "<strong>Fighters:</strong><br>Kevin Holland (Welterweight - 15)",
        "number_of_fighters": 1
      },
      "geometry": {
        "type": "Point",
        "coordinates": [
          -97.43719861,
          32.71915214
        ]
      }
    },
    {
      "type": "Feature",
      "properties": {
        "gym_location": "Team CIT MMA",
        "fighters": "<strong>Fighters:</strong><br>Dricus Du Plessis (Middleweight - Champion)",
        "number_of_fighters": 1
      },
      "geometry": {
        "type": "Point",
        "coordinates": [
          28.24353087,
          -25.74195436
        ]
      }
    },
    {
      "type": "Feature",
      "properties": {
        "gym_location": "PMA, Padstow NSW, Australia",
        "fighters": "<strong>Fighters:</strong><br>Robert Whittaker (Middleweight - 3)",
        "number_of_fighters": 1
      },
      "geometry": {
        "type": "Point",
        "coordinates": [
          151.029661,
          -33.948677
        ]
      }
    },
    {
      "type": "Feature",
      "properties": {
        "gym_location": "ABJJ + Gracie Barra Alaska",
        "fighters": "<strong>Fighters:</strong><br>Jared Cannonier (Middleweight - 5)",
        "number_of_fighters": 1
      },
      "geometry": {
        "type": "Point",
        "coordinates": [
          -149.8905958,
          61.17476197
        ]
      }
    },
    {
      "type": "Feature",
      "properties": {
        "gym_location": "Team Borracha",
        "fighters": "<strong>Fighters:</strong><br>Paulo Costa (Middleweight - 8)<br>Natalia Silva (Women's Flyweight - 8)",
        "number_of_fighters": 2
      },
      "geometry": {
        "type": "Point",
        "coordinates": [
          -44.05171715,
          -19.93589311
        ]
      }
    },
    {
      "type": "Feature",
      "properties": {
        "gym_location": "Frontline Academy",
        "fighters": "<strong>Fighters:</strong><br>Jack Hermansson (Middleweight - 9)",
        "number_of_fighters": 1
      },
      "geometry": {
        "type": "Point",
        "coordinates": [
          10.72572884,
          59.9271348
        ]
      }
    },
    {
      "type": "Feature",
      "properties": {
        "gym_location": "Allstars Training Center",
        "fighters": "<strong>Fighters:</strong><br>Khamzat Chimaev (Middleweight - 11)<br>Volkan Oezdemir (Light Heavyweight - 7)",
        "number_of_fighters": 2
      },
      "geometry": {
        "type": "Point",
        "coordinates": [
          18.048948,
          59.34866
        ]
      }
    },
    {
      "type": "Feature",
      "properties": {
        "gym_location": "Combat Club",
        "fighters": "<strong>Fighters:</strong><br>Caio Borralho (Middleweight - 12)",
        "number_of_fighters": 1
      },
      "geometry": {
        "type": "Point",
        "coordinates": [
          -46.659576,
          -23.530178
        ]
      }
    },
    {
      "type": "Feature",
      "properties": {
        "gym_location": "Marinoble's Martial Arts",
        "fighters": "<strong>Fighters:</strong><br>Anthony Hernandez (Middleweight - 14)",
        "number_of_fighters": 1
      },
      "geometry": {
        "type": "Point",
        "coordinates": [
          -121.2885028,
          38.71469121
        ]
      }
    },
    {
      "type": "Feature",
      "properties": {
        "gym_location": "Teixeira MMA & Fitness",
        "fighters": "<strong>Fighters:</strong><br>Alex Pereira (Light Heavyweight - Champion)",
        "number_of_fighters": 1
      },
      "geometry": {
        "type": "Point",
        "coordinates": [
          -73.390839,
          41.416772
        ]
      }
    },
    {
      "type": "Feature",
      "properties": {
        "gym_location": "JETSAAM GYM",
        "fighters": "<strong>Fighters:</strong><br>Ji\u0159\u00ed Proch\u00e1zka (Light Heavyweight - 1)",
        "number_of_fighters": 1
      },
      "geometry": {
        "type": "Point",
        "coordinates": [
          16.66168169,
          49.20596183
        ]
      }
    },
    {
      "type": "Feature",
      "properties": {
        "gym_location": "Black Lion BJJ",
        "fighters": "<strong>Fighters:</strong><br>Jamahal Hill (Light Heavyweight - 3)",
        "number_of_fighters": 1
      },
      "geometry": {
        "type": "Point",
        "coordinates": [
          -85.67975043,
          42.84320134
        ]
      }
    },
    {
      "type": "Feature",
      "properties": {
        "gym_location": "WCA",
        "fighters": "<strong>Fighters:</strong><br>Jan B\u0142achowicz (Light Heavyweight - 4)",
        "number_of_fighters": 1
      },
      "geometry": {
        "type": "Point",
        "coordinates": [
          20.93406334,
          52.30238096
        ]
      }
    },
    {
      "type": "Feature",
      "properties": {
        "gym_location": "Vale Tudo MMA",
        "fighters": "<strong>Fighters:</strong><br>Nikita Krylov (Light Heavyweight - 6)",
        "number_of_fighters": 1
      },
      "geometry": {
        "type": "Point",
        "coordinates": [
          25.29897927,
          54.72600995
        ]
      }
    },
    {
      "type": "Feature",
      "properties": {
        "gym_location": "SBG Ireland",
        "fighters": "<strong>Fighters:</strong><br>Johnny Walker (Light Heavyweight - 9)",
        "number_of_fighters": 1
      },
      "geometry": {
        "type": "Point",
        "coordinates": [
          -6.322290578,
          53.33647107
        ]
      }
    },
    {
      "type": "Feature",
      "properties": {
        "gym_location": "Mick Doyle's Kickboxing - Omaha, NE",
        "fighters": "<strong>Fighters:</strong><br>Anthony Smith (Light Heavyweight - 11)",
        "number_of_fighters": 1
      },
      "geometry": {
        "type": "Point",
        "coordinates": [
          -96.03178629,
          41.29149244
        ]
      }
    },
    {
      "type": "Feature",
      "properties": {
        "gym_location": "Corba Kai",
        "fighters": "<strong>Fighters:</strong><br>Dominick Reyes (Light Heavyweight - 13)",
        "number_of_fighters": 1
      },
      "geometry": {
        "type": "Point",
        "coordinates": [
          -117.3398549,
          34.47269465
        ]
      }
    },
    {
      "type": "Feature",
      "properties": {
        "gym_location": "Unknown",
        "fighters": "<strong>Fighters:</strong><br>Azamat Murzakanov (Light Heavyweight - 14)<br>Marina Rodriguez (Women's Strawweight - 6)",
        "number_of_fighters": 2
      },
      "geometry": {
        "type": "Point",
        "coordinates": [
          1.0,
          1.0
        ]
      }
    },
    {
      "type": "Feature",
      "properties": {
        "gym_location": "Saekson Muay Thai",
        "fighters": "<strong>Fighters:</strong><br>Alonzo Menifield (Light Heavyweight - 15)",
        "number_of_fighters": 1
      },
      "geometry": {
        "type": "Point",
        "coordinates": [
          -118.7656579,
          34.27203589
        ]
      }
    },
    {
      "type": "Feature",
      "properties": {
        "gym_location": "Jackson Wink MMA",
        "fighters": "<strong>Fighters:</strong><br>Jon Jones (Heavyweight - Champion)<br>Holly Holm (Women's Bantamweight - 7)",
        "number_of_fighters": 2
      },
      "geometry": {
        "type": "Point",
        "coordinates": [
          -106.6422759,
          35.08678511
        ]
      }
    },
    {
      "type": "Feature",
      "properties": {
        "gym_location": "Team Kaobon",
        "fighters": "<strong>Fighters:</strong><br>Tom Aspinall (Heavyweight - 1)",
        "number_of_fighters": 1
      },
      "geometry": {
        "type": "Point",
        "coordinates": [
          -2.806006674,
          53.44927092
        ]
      }
    },
    {
      "type": "Feature",
      "properties": {
        "gym_location": "MMA Factory - Paris",
        "fighters": "<strong>Fighters:</strong><br>Ciryl Gane (Heavyweight - 2)",
        "number_of_fighters": 1
      },
      "geometry": {
        "type": "Point",
        "coordinates": [
          2.283102,
          48.868455
        ]
      }
    },
    {
      "type": "Feature",
      "properties": {
        "gym_location": "Global Fight Gym",
        "fighters": "<strong>Fighters:</strong><br>Alexander Volkov (Heavyweight - 3)",
        "number_of_fighters": 1
      },
      "geometry": {
        "type": "Point",
        "coordinates": [
          37.61780675,
          55.6955642
        ]
      }
    },
    {
      "type": "Feature",
      "properties": {
        "gym_location": "Strongstyle Fight Team",
        "fighters": "<strong>Fighters:</strong><br>Stipe Miocic (Heavyweight - 6)",
        "number_of_fighters": 1
      },
      "geometry": {
        "type": "Point",
        "coordinates": [
          -81.64389972,
          41.41489923
        ]
      }
    },
    {
      "type": "Feature",
      "properties": {
        "gym_location": "Galpao da Luta",
        "fighters": "<strong>Fighters:</strong><br>Jailton Almeida (Heavyweight - 7)",
        "number_of_fighters": 1
      },
      "geometry": {
        "type": "Point",
        "coordinates": [
          -38.48974531,
          -12.99415121
        ]
      }
    },
    {
      "type": "Feature",
      "properties": {
        "gym_location": "S4 Warszawa",
        "fighters": "<strong>Fighters:</strong><br>Marcin Tybura (Heavyweight - 8)",
        "number_of_fighters": 1
      },
      "geometry": {
        "type": "Point",
        "coordinates": [
          21.116658,
          51.016884
        ]
      }
    },
    {
      "type": "Feature",
      "properties": {
        "gym_location": "MIR MMA",
        "fighters": "<strong>Fighters:</strong><br>Serghei Spivac (Heavyweight - 9)",
        "number_of_fighters": 1
      },
      "geometry": {
        "type": "Point",
        "coordinates": [
          37.86654874,
          55.90956056
        ]
      }
    },
    {
      "type": "Feature",
      "properties": {
        "gym_location": "TK MMA",
        "fighters": "<strong>Fighters:</strong><br>Tai Tuivasa (Heavyweight - 10)",
        "number_of_fighters": 1
      },
      "geometry": {
        "type": "Point",
        "coordinates": [
          151.1700573,
          -33.77765915
        ]
      }
    },
    {
      "type": "Feature",
      "properties": {
        "gym_location": "4oz Fight Club",
        "fighters": "<strong>Fighters:</strong><br>Derrick Lewis (Heavyweight - 11)",
        "number_of_fighters": 1
      },
      "geometry": {
        "type": "Point",
        "coordinates": [
          -95.58599864,
          29.95585439
        ]
      }
    },
    {
      "type": "Feature",
      "properties": {
        "gym_location": "Lion Fight Acadamy",
        "fighters": "<strong>Fighters:</strong><br>Alexandr Romanov (Heavyweight - 13)",
        "number_of_fighters": 1
      },
      "geometry": {
        "type": "Point",
        "coordinates": [
          28.79315211,
          47.0408724
        ]
      }
    },
    {
      "type": "Feature",
      "properties": {
        "gym_location": "011 MMA TEAM",
        "fighters": "<strong>Fighters:</strong><br>Marcos Rogerio de Lima (Heavyweight - 14)",
        "number_of_fighters": 1
      },
      "geometry": {
        "type": "Point",
        "coordinates": [
          -46.64169203,
          -23.57241847
        ]
      }
    },
    {
      "type": "Feature",
      "properties": {
        "gym_location": "Bangtao",
        "fighters": "<strong>Fighters:</strong><br>Zhang Weili (Women's Strawweight - Champion)",
        "number_of_fighters": 1
      },
      "geometry": {
        "type": "Point",
        "coordinates": [
          98.29165979,
          7.985935711
        ]
      }
    },
    {
      "type": "Feature",
      "properties": {
        "gym_location": "Millennia MMA",
        "fighters": "<strong>Fighters:</strong><br>Tatiana Suarez (Women's Strawweight - 1)",
        "number_of_fighters": 1
      },
      "geometry": {
        "type": "Point",
        "coordinates": [
          -117.545213,
          34.100554
        ]
      }
    },
    {
      "type": "Feature",
      "properties": {
        "gym_location": "Fight House",
        "fighters": "<strong>Fighters:</strong><br>Virna Jandiroba (Women's Strawweight - 3)<br>Iasmin Lucindo (Women's Strawweight - 14)",
        "number_of_fighters": 2
      },
      "geometry": {
        "type": "Point",
        "coordinates": [
          -46.57835895,
          -23.58957787
        ]
      }
    },
    {
      "type": "Feature",
      "properties": {
        "gym_location": "PRVT Para Vale Tudo",
        "fighters": "<strong>Fighters:</strong><br>J\u00e9ssica Andrade (Women's Strawweight - 4)<br>J\u00e9ssica Andrade (Women's Flyweight - 6)<br>Karol Rosa (Women's Bantamweight - 8)",
        "number_of_fighters": 3
      },
      "geometry": {
        "type": "Point",
        "coordinates": [
          -53.1382861,
          -4.046127836
        ]
      }
    },
    {
      "type": "Feature",
      "properties": {
        "gym_location": "Marajo Brothers",
        "fighters": "<strong>Fighters:</strong><br>Amanda Lemos (Women's Strawweight - 5)",
        "number_of_fighters": 1
      },
      "geometry": {
        "type": "Point",
        "coordinates": [
          -48.47542709,
          -1.466562892
        ]
      }
    },
    {
      "type": "Feature",
      "properties": {
        "gym_location": "Megaton Dias BJJ",
        "fighters": "<strong>Fighters:</strong><br>Mackenzie Dern (Women's Strawweight - 7)",
        "number_of_fighters": 1
      },
      "geometry": {
        "type": "Point",
        "coordinates": [
          -112.0119644,
          33.5815987
        ]
      }
    },
    {
      "type": "Feature",
      "properties": {
        "gym_location": "Black House MMA",
        "fighters": "<strong>Fighters:</strong><br>Tabatha Ricci (Women's Strawweight - 11)",
        "number_of_fighters": 1
      },
      "geometry": {
        "type": "Point",
        "coordinates": [
          -118.353305,
          33.87664036
        ]
      }
    },
    {
      "type": "Feature",
      "properties": {
        "gym_location": "Goat Shed",
        "fighters": "<strong>Fighters:</strong><br>Gillian Robertson (Women's Strawweight - 13)",
        "number_of_fighters": 1
      },
      "geometry": {
        "type": "Point",
        "coordinates": [
          -80.19795877,
          25.81033681
        ]
      }
    },
    {
      "type": "Feature",
      "properties": {
        "gym_location": "Gracie Barra Lodz",
        "fighters": "<strong>Fighters:</strong><br>Karolina Kowalkiewicz (Women's Strawweight - 15)",
        "number_of_fighters": 1
      },
      "geometry": {
        "type": "Point",
        "coordinates": [
          19.661135,
          52.238667
        ]
      }
    },
    {
      "type": "Feature",
      "properties": {
        "gym_location": "Boxing Squad Nice",
        "fighters": "<strong>Fighters:</strong><br>Manon Fiorot (Women's Flyweight - 2)",
        "number_of_fighters": 1
      },
      "geometry": {
        "type": "Point",
        "coordinates": [
          7.194066414,
          43.71036278
        ]
      }
    },
    {
      "type": "Feature",
      "properties": {
        "gym_location": "Renzo Gracie Academy",
        "fighters": "<strong>Fighters:</strong><br>Erin Blanchfield (Women's Flyweight - 3)<br>Katlyn Cerminara (Women's Flyweight - 7)",
        "number_of_fighters": 2
      },
      "geometry": {
        "type": "Point",
        "coordinates": [
          -73.99337319,
          40.74901844
        ]
      }
    },
    {
      "type": "Feature",
      "properties": {
        "gym_location": "Cerrado MMA",
        "fighters": "<strong>Fighters:</strong><br>Viviane Ara\u00fajo (Women's Flyweight - 10)",
        "number_of_fighters": 1
      },
      "geometry": {
        "type": "Point",
        "coordinates": [
          -47.87227881,
          -15.77467307
        ]
      }
    },
    {
      "type": "Feature",
      "properties": {
        "gym_location": "Gile Ribeiro - Curitiba, Brazil",
        "fighters": "<strong>Fighters:</strong><br>Karine Silva (Women's Flyweight - 11)",
        "number_of_fighters": 1
      },
      "geometry": {
        "type": "Point",
        "coordinates": [
          -49.26036629,
          -25.43034523
        ]
      }
    },
    {
      "type": "Feature",
      "properties": {
        "gym_location": "Neuro Force One",
        "fighters": "<strong>Fighters:</strong><br>Tracy Cortez (Women's Flyweight - 12)",
        "number_of_fighters": 1
      },
      "geometry": {
        "type": "Point",
        "coordinates": [
          -111.8847552,
          33.63763562
        ]
      }
    },
    {
      "type": "Feature",
      "properties": {
        "gym_location": "Niagara Top Team",
        "fighters": "<strong>Fighters:</strong><br>Jasmine Jasudavicius (Women's Flyweight - 14)",
        "number_of_fighters": 1
      },
      "geometry": {
        "type": "Point",
        "coordinates": [
          -79.386412,
          43.669629
        ]
      }
    },
    {
      "type": "Feature",
      "properties": {
        "gym_location": "Colorado Springs BJJ",
        "fighters": "<strong>Fighters:</strong><br>Raquel Pennington (Women's Bantamweight - Champion)",
        "number_of_fighters": 1
      },
      "geometry": {
        "type": "Point",
        "coordinates": [
          -105.940268,
          39.60683
        ]
      }
    },
    {
      "type": "Feature",
      "properties": {
        "gym_location": "Sik-Jitsu Spokane, WA",
        "fighters": "<strong>Fighters:</strong><br>Julianna Pe\u00f1a (Women's Bantamweight - 1)",
        "number_of_fighters": 1
      },
      "geometry": {
        "type": "Point",
        "coordinates": [
          -117.42208,
          47.65903
        ]
      }
    },
    {
      "type": "Feature",
      "properties": {
        "gym_location": "Arte Suave",
        "fighters": "<strong>Fighters:</strong><br>Pannie Kianzad (Women's Bantamweight - 11)",
        "number_of_fighters": 1
      },
      "geometry": {
        "type": "Point",
        "coordinates": [
          -77.21127959,
          38.74401069
        ]
      }
    },
    {
      "type": "Feature",
      "properties": {
        "gym_location": "Outsiders Combat Club",
        "fighters": "<strong>Fighters:</strong><br>Julia Avila (Women's Bantamweight - 13)",
        "number_of_fighters": 1
      },
      "geometry": {
        "type": "Point",
        "coordinates": [
          -97.51397044,
          35.55000678
        ]
      }
    },
    {
      "type": "Feature",
      "properties": {
        "gym_location": "Cesar Gracie Jiu-Jitsu",
        "fighters": "<strong>Fighters:</strong><br>Chelsea Chandler (Women's Bantamweight - 14)",
        "number_of_fighters": 1
      },
      "geometry": {
        "type": "Point",
        "coordinates": [
          -121.9374198,
          37.98658084
        ]
      }
    },
    {
      "type": "Feature",
      "properties": {
        "gym_location": "CSA Holland",
        "fighters": "<strong>Fighters:</strong><br>Germaine de Randamie (Women's Bantamweight - 15)",
        "number_of_fighters": 1
      },
      "geometry": {
        "type": "Point",
        "coordinates": [
          5.657705189,
          51.48127727
        ]
      }
    }
  ]
}